{"total": 2122, "businesses": [[{"id": "wGKlPWIZVslyMM9es7vg1A", "alias": "el-barrio-birmingham", "name": "El Barrio", "image_url": "https://s3-media1.fl.yelpcdn.com/bphoto/QZ9Mpz7gXhwc3cqxX32MEg/o.jpg", "is_closed": false, "url": "https://www.yelp.com/biz/el-barrio-birmingham?adjust_creative=TpLShpR2csZ2AtLGvsRWXw&utm_campaign=yelp_api_v3&utm_medium=api_v3_business_search&utm_source=TpLShpR2csZ2AtLGvsRWXw", "review_count": 421, "categories": [{"alias": "mexican", "title": "Mexican"}], "rating": 4.5, "coordinates": {"latitude": 33.516636, "longitude": -86.802849}, "transactions": [], "price": "$$", "location": {"address1": "2211 2nd Ave N", "address2": "", "address3": "", "city": "Birmingham", "zip_code": "35203", "country": "US", "state": "AL", "display_address": ["2211 2nd Ave N", "Birmingham, AL 35203"]}, "phone": "+12058683737", "display_phone": "(205) 868-3737", "distance": 5386.333367307706}, {"id": "CcvzbAdZR7kN_HQy5i4AtA", "alias": "saws-soul-kitchen-birmingham-3", "name": "Saw's Soul Kitchen", "image_url": "https://s3-media4.fl.yelpcdn.com/bphoto/W4k1A2Uo4pfCT0OCUFbf8g/o.jpg", "is_closed": false, "url": "https://www.yelp.com/biz/saws-soul-kitchen-birmingham-3?adjust_creative=TpLShpR2csZ2AtLGvsRWXw&utm_campaign=yelp_api_v3&utm_medium=api_v3_business_search&utm_source=TpLShpR2csZ2AtLGvsRWXw", "review_count": 525, "categories": [{"alias": "bbq", "title": "Barbeque"}, {"alias": "seafood", "title": "Seafood"}, {"alias": "burgers", "title": "Burgers"}], "rating": 4.5, "coordinates": {"latitude": 33.52419, "longitude": -86.77383}, "transactions": [], "price": "$$", "location": {"address1": "215 41st St S", "address2": null, "address3": "", "city": "Birmingham", "zip_code": "35222", "country": "US", "state": "AL", "display_address": ["215 41st St S", "Birmingham, AL 35222"]}, "phone": "+12055911409", "display_phone": "(205) 591-1409", "distance": 5621.077150019464}, {"id": "cBBkzOlODF5Fh3y84i1eYA", "alias": "carrigans-public-house-birmingham", "name": "Carrigan's Public House", "image_url": "https://s3-media1.fl.yelpcdn.com/bphoto/-Ko90Y4jxyqVkfVCgR4aog/o.jpg", "is_closed": false, "url": "https://www.yelp.com/biz/carrigans-public-house-birmingham?adjust_creative=TpLShpR2csZ2AtLGvsRWXw&utm_campaign=yelp_api_v3&utm_medium=api_v3_business_search&utm_source=TpLShpR2csZ2AtLGvsRWXw", "review_count": 396, "categories": [{"alias": "cocktailbars", "title": "Cocktail Bars"}, {"alias": "gastropubs", "title": "Gastropubs"}, {"alias": "pubs", "title": "Pubs"}], "rating": 4.5, "coordinates": {"latitude": 33.5171239295806, "longitude": -86.7986459428528}, "transactions": [], "price": "$$", "location": {"address1": "2430 Morris Ave", "address2": "", "address3": "", "city": "Birmingham", "zip_code": "35203", "country": "US", "state": "AL", "display_address": ["2430 Morris Ave", "Birmingham, AL 35203"]}, "phone": "+12054402430", "display_phone": "(205) 440-2430", "distance": 5236.7155032452665}, {"id": "kkqKAH2hKFDOCte1zyd57Q", "alias": "chez-fonfon-birmingham", "name": "Chez Fonfon", "image_url": "https://s3-media4.fl.yelpcdn.com/bphoto/-VwHT51cfgWHXQEJRRCi3A/o.jpg", "is_closed": false, "url": "https://www.yelp.com/biz/chez-fonfon-birmingham?adjust_creative=TpLShpR2csZ2AtLGvsRWXw&utm_campaign=yelp_api_v3&utm_medium=api_v3_business_search&utm_source=TpLShpR2csZ2AtLGvsRWXw", "review_count": 246, "categories": [{"alias": "french", "title": "French"}, {"alias": "bars", "title": "Bars"}], "rating": 4.5, "coordinates": {"latitude": 33.500550020261, "longitude": -86.795709322706}, "transactions": [], "price": "$$", "location": {"address1": "2007 11th Ave S", "address2": "", "address3": "", "city": "Birmingham", "zip_code": "35205", "country": "US", "state": "AL", "display_address": ["2007 11th Ave S", "Birmingham, AL 35205"]}, "phone": "+12059393221", "display_phone": "(205) 939-3221", "distance": 3461.784536136392}, {"id": "mglgZmKhXv9rOLkPB0Pbkw", "alias": "urban-standard-birmingham", "name": "Urban Standard", "image_url": "https://s3-media1.fl.yelpcdn.com/bphoto/zoNrRbpo0YBNr670H8wkBw/o.jpg", "is_closed": false, "url": "https://www.yelp.com/biz/urban-standard-birmingham?adjust_creative=TpLShpR2csZ2AtLGvsRWXw&utm_campaign=yelp_api_v3&utm_medium=api_v3_business_search&utm_source=TpLShpR2csZ2AtLGvsRWXw", "review_count": 293, "categories": [{"alias": "cafes", "title": "Cafes"}, {"alias": "sandwiches", "title": "Sandwiches"}, {"alias": "burgers", "title": "Burgers"}], "rating": 4.5, "coordinates": {"latitude": 33.51761, "longitude": -86.80194}, "transactions": [], "price": "$", "location": {"address1": "2320 2nd Ave N", "address2": "", "address3": "", "city": "Birmingham", "zip_code": "35203", "country": "US", "state": "AL", "display_address": ["2320 2nd Ave N", "Birmingham, AL 35203"]}, "phone": "+12052508200", "display_phone": "(205) 250-8200", "distance": 5430.687514251071}, {"id": "wGPimgA9Nu5JMiptw6I6JA", "alias": "highlands-bar-and-grill-birmingham", "name": "Highlands Bar & Grill", "image_url": "https://s3-media4.fl.yelpcdn.com/bphoto/-KcjKCKHTHVWvEbnD6-eTw/o.jpg", "is_closed": false, "url": "https://www.yelp.com/biz/highlands-bar-and-grill-birmingham?adjust_creative=TpLShpR2csZ2AtLGvsRWXw&utm_campaign=yelp_api_v3&utm_medium=api_v3_business_search&utm_source=TpLShpR2csZ2AtLGvsRWXw", "review_count": 208, "categories": [{"alias": "southern", "title": "Southern"}, {"alias": "bars", "title": "Bars"}], "rating": 4.5, "coordinates": {"latitude": 33.500572, "longitude": -86.795577}, "transactions": [], "price": "$$$", "location": {"address1": "2011 11th Ave S", "address2": "", "address3": "", "city": "Birmingham", "zip_code": "35205", "country": "US", "state": "AL", "display_address": ["2011 11th Ave S", "Birmingham, AL 35205"]}, "phone": "+12059391400", "display_phone": "(205) 939-1400", "distance": 3457.727325923905}, {"id": "inQbIfh7ME9hK0FRyJ6m6w", "alias": "yo-mamas-birmingham-2", "name": "Yo' Mama's", "image_url": "https://s3-media4.fl.yelpcdn.com/bphoto/en0TAZmN4QHTqN_SwyQ6iA/o.jpg", "is_closed": false, "url": "https://www.yelp.com/biz/yo-mamas-birmingham-2?adjust_creative=TpLShpR2csZ2AtLGvsRWXw&utm_campaign=yelp_api_v3&utm_medium=api_v3_business_search&utm_source=TpLShpR2csZ2AtLGvsRWXw", "review_count": 231, "categories": [{"alias": "newamerican", "title": "American (New)"}, {"alias": "gluten_free", "title": "Gluten-Free"}, {"alias": "comfortfood", "title": "Comfort Food"}], "rating": 4.5, "coordinates": {"latitude": 33.51766, "longitude": -86.80183}, "transactions": [], "price": "$$", "location": {"address1": "2328 2nd Ave N", "address2": null, "address3": "", "city": "Birmingham", "zip_code": "35203", "country": "US", "state": "AL", "display_address": ["2328 2nd Ave N", "Birmingham, AL 35203"]}, "phone": "+12059576545", "display_phone": "(205) 957-6545", "distance": 5423.439805334565}, {"id": "zWAQqP0zVzTMYA_0r-EjoA", "alias": "trattoria-centrale-birmingham-2", "name": "Trattoria Centrale", "image_url": "https://s3-media1.fl.yelpcdn.com/bphoto/3BY8Ja9rfS8qjUOjhZkdFA/o.jpg", "is_closed": false, "url": "https://www.yelp.com/biz/trattoria-centrale-birmingham-2?adjust_creative=TpLShpR2csZ2AtLGvsRWXw&utm_campaign=yelp_api_v3&utm_medium=api_v3_business_search&utm_source=TpLShpR2csZ2AtLGvsRWXw", "review_count": 210, "categories": [{"alias": "breakfast_brunch", "title": "Breakfast & Brunch"}, {"alias": "italian", "title": "Italian"}], "rating": 4.5, "coordinates": {"latitude": 33.5155820048533, "longitude": -86.8063214091213}, "transactions": [], "price": "$$", "location": {"address1": "207A 20th St N", "address2": "", "address3": "", "city": "Birmingham", "zip_code": "35203", "country": "US", "state": "AL", "display_address": ["207A 20th St N", "Birmingham, AL 35203"]}, "phone": "+12052025612", "display_phone": "(205) 202-5612", "distance": 5410.999937653893}, {"id": "tfERmVpjELTIHG0xU4Sd2g", "alias": "babalu-tapas-and-tacos-birmingham-3", "name": "Babalu Tapas & Tacos", "image_url": "https://s3-media2.fl.yelpcdn.com/bphoto/qPasePAin08IuE9vlxbeBA/o.jpg", "is_closed": false, "url": "https://www.yelp.com/biz/babalu-tapas-and-tacos-birmingham-3?adjust_creative=TpLShpR2csZ2AtLGvsRWXw&utm_campaign=yelp_api_v3&utm_medium=api_v3_business_search&utm_source=TpLShpR2csZ2AtLGvsRWXw", "review_count": 365, "categories": [{"alias": "latin", "title": "Latin American"}, {"alias": "tapas", "title": "Tapas Bars"}, {"alias": "tacos", "title": "Tacos"}], "rating": 4.0, "coordinates": {"latitude": 33.5117073059082, "longitude": -86.788444519043}, "transactions": [], "price": "$$", "location": {"address1": "2808 7th Ave S", "address2": "Ste 117", "address3": "", "city": "Birmingham", "zip_code": "35233", "country": "US", "state": "AL", "display_address": ["2808 7th Ave S", "Ste 117", "Birmingham, AL 35233"]}, "phone": "+12052970200", "display_phone": "(205) 297-0200", "distance": 4363.541574100963}, {"id": "cpCHZmd3bQH6zADw67o9uw", "alias": "bamboo-on-2nd-birmingham", "name": "Bamboo on 2nd", "image_url": "https://s3-media4.fl.yelpcdn.com/bphoto/duWtoO79qs5-GS-Du5CUEg/o.jpg", "is_closed": false, "url": "https://www.yelp.com/biz/bamboo-on-2nd-birmingham?adjust_creative=TpLShpR2csZ2AtLGvsRWXw&utm_campaign=yelp_api_v3&utm_medium=api_v3_business_search&utm_source=TpLShpR2csZ2AtLGvsRWXw", "review_count": 214, "categories": [{"alias": "sushi", "title": "Sushi Bars"}, {"alias": "asianfusion", "title": "Asian Fusion"}], "rating": 4.5, "coordinates": {"latitude": 33.5172233581543, "longitude": -86.8031234741211}, "transactions": [], "price": "$$", "location": {"address1": "2212 2nd Ave N", "address2": "", "address3": "", "city": "Birmingham", "zip_code": "35203", "country": "US", "state": "AL", "display_address": ["2212 2nd Ave N", "Birmingham, AL 35203"]}, "phone": "+12057030551", "display_phone": "(205) 703-0551", "distance": 5420.257260728198}, {"id": "dKvvDoYppcVnAirRXbN3Xw", "alias": "gianmarcos-restaurant-birmingham", "name": "Gianmarco's Restaurant", "image_url": "https://s3-media2.fl.yelpcdn.com/bphoto/SE1Wob-QayyQKzuVdBOOgQ/o.jpg", "is_closed": false, "url": "https://www.yelp.com/biz/gianmarcos-restaurant-birmingham?adjust_creative=TpLShpR2csZ2AtLGvsRWXw&utm_campaign=yelp_api_v3&utm_medium=api_v3_business_search&utm_source=TpLShpR2csZ2AtLGvsRWXw", "review_count": 272, "categories": [{"alias": "italian", "title": "Italian"}, {"alias": "seafood", "title": "Seafood"}, {"alias": "wine_bars", "title": "Wine Bars"}], "rating": 4.5, "coordinates": {"latitude": 33.462209, "longitude": -86.812519}, "transactions": [], "price": "$$", "location": {"address1": "721 Broadway St", "address2": "", "address3": "", "city": "Birmingham", "zip_code": "35209", "country": "US", "state": "AL", "display_address": ["721 Broadway St", "Birmingham, AL 35209"]}, "phone": "+12058719622", "display_phone": "(205) 871-9622", "distance": 3542.240571628338}, {"id": "W6Z4VGSJ5lLymR2idLNLfw", "alias": "hattie-bs-hot-chicken-bham-birmingham", "name": "Hattie B's Hot Chicken - Bham", "image_url": "https://s3-media3.fl.yelpcdn.com/bphoto/fp6UjwlSmudp0PHr2jEhcw/o.jpg", "is_closed": false, "url": "https://www.yelp.com/biz/hattie-bs-hot-chicken-bham-birmingham?adjust_creative=TpLShpR2csZ2AtLGvsRWXw&utm_campaign=yelp_api_v3&utm_medium=api_v3_business_search&utm_source=TpLShpR2csZ2AtLGvsRWXw", "review_count": 266, "categories": [{"alias": "southern", "title": "Southern"}, {"alias": "tradamerican", "title": "American (Traditional)"}, {"alias": "chicken_wings", "title": "Chicken Wings"}], "rating": 4.5, "coordinates": {"latitude": 33.5111235187833, "longitude": -86.7881074625634}, "transactions": [], "price": "$$", "location": {"address1": "2808 7th Ave S", "address2": "Ste 101", "address3": null, "city": "Birmingham", "zip_code": "35233", "country": "US", "state": "AL", "display_address": ["2808 7th Ave S", "Ste 101", "Birmingham, AL 35233"]}, "phone": "+12055786018", "display_phone": "(205) 578-6018", "distance": 4293.172698885411}, {"id": "6NSlbdNQnppHh9yrPCLZhw", "alias": "good-people-brewing-birmingham", "name": "Good People Brewing", "image_url": "https://s3-media2.fl.yelpcdn.com/bphoto/kFxFsNxCWqaL1CneQGalpA/o.jpg", "is_closed": false, "url": "https://www.yelp.com/biz/good-people-brewing-birmingham?adjust_creative=TpLShpR2csZ2AtLGvsRWXw&utm_campaign=yelp_api_v3&utm_medium=api_v3_business_search&utm_source=TpLShpR2csZ2AtLGvsRWXw", "review_count": 173, "categories": [{"alias": "pubs", "title": "Pubs"}, {"alias": "breweries", "title": "Breweries"}], "rating": 4.5, "coordinates": {"latitude": 33.506981, "longitude": -86.81218}, "transactions": [], "price": "$", "location": {"address1": "114 14th St S", "address2": "", "address3": "", "city": "Birmingham", "zip_code": "35233", "country": "US", "state": "AL", "display_address": ["114 14th St S", "Birmingham, AL 35233"]}, "phone": "+12052862337", "display_phone": "(205) 286-2337", "distance": 4943.29623932908}, {"id": "MLsjpnNWkCy8b2gOdDDjwg", "alias": "paramount-bar-birmingham", "name": "Paramount Bar", "image_url": "https://s3-media4.fl.yelpcdn.com/bphoto/YXCmDg3e-wB0faPDuw_Ppw/o.jpg", "is_closed": false, "url": "https://www.yelp.com/biz/paramount-bar-birmingham?adjust_creative=TpLShpR2csZ2AtLGvsRWXw&utm_campaign=yelp_api_v3&utm_medium=api_v3_business_search&utm_source=TpLShpR2csZ2AtLGvsRWXw", "review_count": 215, "categories": [{"alias": "arcades", "title": "Arcades"}, {"alias": "sportsbars", "title": "Sports Bars"}, {"alias": "tradamerican", "title": "American (Traditional)"}], "rating": 4.5, "coordinates": {"latitude": 33.5154522532243, "longitude": -86.8065519751465}, "transactions": [], "price": "$$", "location": {"address1": "200 20th St N", "address2": "", "address3": "", "city": "Birmingham", "zip_code": "35203", "country": "US", "state": "AL", "display_address": ["200 20th St N", "Birmingham, AL 35203"]}, "phone": "+12053202824", "display_phone": "(205) 320-2824", "distance": 5399.756615120309}, {"id": "0ZcwpVEYRZ-ZyeLsZS2oGA", "alias": "jack-browns-beer-and-burger-joint-birmingham", "name": "Jack Brown's Beer & Burger Joint", "image_url": "https://s3-media1.fl.yelpcdn.com/bphoto/qCO5ce6yiLdERymdELH4yQ/o.jpg", "is_closed": false, "url": "https://www.yelp.com/biz/jack-browns-beer-and-burger-joint-birmingham?adjust_creative=TpLShpR2csZ2AtLGvsRWXw&utm_campaign=yelp_api_v3&utm_medium=api_v3_business_search&utm_source=TpLShpR2csZ2AtLGvsRWXw", "review_count": 289, "categories": [{"alias": "burgers", "title": "Burgers"}, {"alias": "beerbar", "title": "Beer Bar"}], "rating": 4.0, "coordinates": {"latitude": 33.5111334, "longitude": -86.7883818}, "transactions": [], "price": "$", "location": {"address1": "2811 7th Ave S", "address2": null, "address3": "", "city": "Birmingham", "zip_code": "35233", "country": "US", "state": "AL", "display_address": ["2811 7th Ave S", "Birmingham, AL 35233"]}, "phone": "+12052034512", "display_phone": "(205) 203-4512", "distance": 4306.590191000997}, {"id": "cPoRxpCoF312QtkIROb9EQ", "alias": "the-j-clyde-birmingham", "name": "The J Clyde", "image_url": "https://s3-media3.fl.yelpcdn.com/bphoto/kk96otOkJ7w2Xt-sSMElsw/o.jpg", "is_closed": false, "url": "https://www.yelp.com/biz/the-j-clyde-birmingham?adjust_creative=TpLShpR2csZ2AtLGvsRWXw&utm_campaign=yelp_api_v3&utm_medium=api_v3_business_search&utm_source=TpLShpR2csZ2AtLGvsRWXw", "review_count": 257, "categories": [{"alias": "pubs", "title": "Pubs"}, {"alias": "tradamerican", "title": "American (Traditional)"}, {"alias": "breweries", "title": "Breweries"}], "rating": 4.0, "coordinates": {"latitude": 33.4979924970813, "longitude": -86.7954927380437}, "transactions": [], "price": "$$", "location": {"address1": "1312 Cobb Ln", "address2": "", "address3": "", "city": "Birmingham", "zip_code": "35205", "country": "US", "state": "AL", "display_address": ["1312 Cobb Ln", "Birmingham, AL 35205"]}, "phone": "+12059391312", "display_phone": "(205) 939-1312", "distance": 3208.5670362578458}, {"id": "w8JHRXDjCpkOtuoFL9soZQ", "alias": "flip-burger-boutique-birmingham", "name": "Flip Burger Boutique", "image_url": "https://s3-media1.fl.yelpcdn.com/bphoto/XRLHZI-a7Zl96BF7mupAkw/o.jpg", "is_closed": false, "url": "https://www.yelp.com/biz/flip-burger-boutique-birmingham?adjust_creative=TpLShpR2csZ2AtLGvsRWXw&utm_campaign=yelp_api_v3&utm_medium=api_v3_business_search&utm_source=TpLShpR2csZ2AtLGvsRWXw", "review_count": 363, "categories": [{"alias": "burgers", "title": "Burgers"}], "rating": 4.0, "coordinates": {"latitude": 33.446991045289, "longitude": -86.732345587266}, "transactions": ["delivery", "pickup"], "price": "$$", "location": {"address1": "220 Summit Blvd", "address2": "Ste 140", "address3": "", "city": "Birmingham", "zip_code": "35243", "country": "US", "state": "AL", "display_address": ["220 Summit Blvd", "Ste 140", "Birmingham, AL 35243"]}, "phone": "+12059682000", "display_phone": "(205) 968-2000", "distance": 5086.212984813458}, {"id": "AdQ1Y4uX6z1M6UcIgvLRAA", "alias": "elis-jerusalem-grill-birmingham", "name": "Eli's Jerusalem Grill", "image_url": "https://s3-media2.fl.yelpcdn.com/bphoto/ykc521dr3az_eZm9W8FnVQ/o.jpg", "is_closed": false, "url": "https://www.yelp.com/biz/elis-jerusalem-grill-birmingham?adjust_creative=TpLShpR2csZ2AtLGvsRWXw&utm_campaign=yelp_api_v3&utm_medium=api_v3_business_search&utm_source=TpLShpR2csZ2AtLGvsRWXw", "review_count": 214, "categories": [{"alias": "falafel", "title": "Falafel"}, {"alias": "vegan", "title": "Vegan"}, {"alias": "gluten_free", "title": "Gluten-Free"}], "rating": 4.5, "coordinates": {"latitude": 33.4246228225051, "longitude": -86.7013690620661}, "transactions": [], "price": "$$", "location": {"address1": "4673 Hwy 280", "address2": "", "address3": "", "city": "Birmingham", "zip_code": "35223", "country": "US", "state": "AL", "display_address": ["4673 Hwy 280", "Birmingham, AL 35223"]}, "phone": "+12056373658", "display_phone": "(205) 637-3658", "distance": 8878.444550474533}, {"id": "r8L1W2m6o-VCyw9hv4F5rw", "alias": "perrys-steakhouse-and-grille-birmingham-birmingham", "name": "Perry's Steakhouse & Grille - Birmingham", "image_url": "https://s3-media3.fl.yelpcdn.com/bphoto/5kjkamhhHjz5Wrg4PCoAJQ/o.jpg", "is_closed": false, "url": "https://www.yelp.com/biz/perrys-steakhouse-and-grille-birmingham-birmingham?adjust_creative=TpLShpR2csZ2AtLGvsRWXw&utm_campaign=yelp_api_v3&utm_medium=api_v3_business_search&utm_source=TpLShpR2csZ2AtLGvsRWXw", "review_count": 189, "categories": [{"alias": "seafood", "title": "Seafood"}, {"alias": "steak", "title": "Steakhouses"}, {"alias": "tradamerican", "title": "American (Traditional)"}], "rating": 4.5, "coordinates": {"latitude": 33.43814, "longitude": -86.72524}, "transactions": [], "price": "$$$", "location": {"address1": "4 Perimeter Park S", "address2": "", "address3": "", "city": "Birmingham", "zip_code": "35243", "country": "US", "state": "AL", "display_address": ["4 Perimeter Park S", "Birmingham, AL 35243"]}, "phone": "+12059681597", "display_phone": "(205) 968-1597", "distance": 6203.626345074134}, {"id": "Ub8nmpPFcObR5f9XuMdhHw", "alias": "birmingham-civil-rights-institute-birmingham", "name": "Birmingham Civil Rights Institute", "image_url": "https://s3-media1.fl.yelpcdn.com/bphoto/haKBFV3RR3XyoAmDZRtteg/o.jpg", "is_closed": false, "url": "https://www.yelp.com/biz/birmingham-civil-rights-institute-birmingham?adjust_creative=TpLShpR2csZ2AtLGvsRWXw&utm_campaign=yelp_api_v3&utm_medium=api_v3_business_search&utm_source=TpLShpR2csZ2AtLGvsRWXw", "review_count": 78, "categories": [{"alias": "museums", "title": "Museums"}, {"alias": "localflavor", "title": "Local Flavor"}], "rating": 5.0, "coordinates": {"latitude": 33.516004, "longitude": -86.815014}, "transactions": [], "location": {"address1": "520 16th St N", "address2": "", "address3": "", "city": "Birmingham", "zip_code": "35203", "country": "US", "state": "AL", "display_address": ["520 16th St N", "Birmingham, AL 35203"]}, "phone": "+12053289696", "display_phone": "(205) 328-9696", "distance": 5887.621933634871}], [{"id": "-YHd5XOit-gDNvelcGCGbw", "alias": "d-road-cafe-montgomery", "name": "D' Road Cafe", "image_url": "https://s3-media3.fl.yelpcdn.com/bphoto/fEodUi8S-VDLYk8_0blcMQ/o.jpg", "is_closed": false, "url": "https://www.yelp.com/biz/d-road-cafe-montgomery?adjust_creative=TpLShpR2csZ2AtLGvsRWXw&utm_campaign=yelp_api_v3&utm_medium=api_v3_business_search&utm_source=TpLShpR2csZ2AtLGvsRWXw", "review_count": 128, "categories": [{"alias": "latin", "title": "Latin American"}, {"alias": "breakfast_brunch", "title": "Breakfast & Brunch"}, {"alias": "desserts", "title": "Desserts"}], "rating": 4.5, "coordinates": {"latitude": 32.37697, "longitude": -86.309962}, "transactions": [], "price": "$$", "location": {"address1": "121 Montgomery St", "address2": null, "address3": "", "city": "Montgomery", "zip_code": "36104", "country": "US", "state": "AL", "display_address": ["121 Montgomery St", "Montgomery, AL 36104"]}, "phone": "+13343282938", "display_phone": "(334) 328-2938", "distance": 5454.44439554374}, {"id": "cXWUwwfVTC4eh_ZoYwjFMw", "alias": "filet-and-vine-montgomery", "name": "Filet & Vine", "image_url": "https://s3-media2.fl.yelpcdn.com/bphoto/cjGV6S3Z_We95F16n_ppKA/o.jpg", "is_closed": false, "url": "https://www.yelp.com/biz/filet-and-vine-montgomery?adjust_creative=TpLShpR2csZ2AtLGvsRWXw&utm_campaign=yelp_api_v3&utm_medium=api_v3_business_search&utm_source=TpLShpR2csZ2AtLGvsRWXw", "review_count": 145, "categories": [{"alias": "sandwiches", "title": "Sandwiches"}, {"alias": "southern", "title": "Southern"}], "rating": 4.5, "coordinates": {"latitude": 32.35844, "longitude": -86.29888}, "transactions": [], "price": "$$", "location": {"address1": "431 Cloverdale Rd", "address2": "", "address3": "", "city": "Montgomery", "zip_code": "36106", "country": "US", "state": "AL", "display_address": ["431 Cloverdale Rd", "Montgomery, AL 36106"]}, "phone": "+13342628463", "display_phone": "(334) 262-8463", "distance": 3875.7830262298257}, {"id": "1KDEw5aOfeu3JwcFhzaj3A", "alias": "central-montgomery-3", "name": "Central", "image_url": "https://s3-media1.fl.yelpcdn.com/bphoto/Rv3IZSXrSwZdB-noMrDAuw/o.jpg", "is_closed": false, "url": "https://www.yelp.com/biz/central-montgomery-3?adjust_creative=TpLShpR2csZ2AtLGvsRWXw&utm_campaign=yelp_api_v3&utm_medium=api_v3_business_search&utm_source=TpLShpR2csZ2AtLGvsRWXw", "review_count": 204, "categories": [{"alias": "bars", "title": "Bars"}, {"alias": "tradamerican", "title": "American (Traditional)"}, {"alias": "venues", "title": "Venues & Event Spaces"}], "rating": 4.0, "coordinates": {"latitude": 32.38018, "longitude": -86.31056}, "transactions": [], "price": "$$$", "location": {"address1": "129 Coosa St", "address2": "", "address3": "", "city": "Montgomery", "zip_code": "36104", "country": "US", "state": "AL", "display_address": ["129 Coosa St", "Montgomery, AL 36104"]}, "phone": "+13345171155", "display_phone": "(334) 517-1155", "distance": 5669.507883101016}, {"id": "b3O3xwwE_IYWmhifHMk3xQ", "alias": "mrs-bs-home-cooking-montgomery", "name": "Mrs Bs Home Cooking", "image_url": "https://s3-media1.fl.yelpcdn.com/bphoto/CVD7rgFgs9f2Ou30NBqCPA/o.jpg", "is_closed": false, "url": "https://www.yelp.com/biz/mrs-bs-home-cooking-montgomery?adjust_creative=TpLShpR2csZ2AtLGvsRWXw&utm_campaign=yelp_api_v3&utm_medium=api_v3_business_search&utm_source=TpLShpR2csZ2AtLGvsRWXw", "review_count": 134, "categories": [{"alias": "soulfood", "title": "Soul Food"}], "rating": 4.5, "coordinates": {"latitude": 32.3761672973633, "longitude": -86.3330383300781}, "transactions": [], "price": "$", "location": {"address1": "17 Cullman St", "address2": null, "address3": null, "city": "Montgomery", "zip_code": "36104", "country": "US", "state": "AL", "display_address": ["17 Cullman St", "Montgomery, AL 36104"]}, "phone": "+13342645495", "display_phone": "(334) 264-5495", "distance": 7438.3715890934745}, {"id": "PO8dFP4rGQzCBk87e-o10w", "alias": "sushi-cafe-montgomery", "name": "Sushi Cafe", "image_url": "https://s3-media3.fl.yelpcdn.com/bphoto/btYbAWyJlIODqtdJailKUg/o.jpg", "is_closed": false, "url": "https://www.yelp.com/biz/sushi-cafe-montgomery?adjust_creative=TpLShpR2csZ2AtLGvsRWXw&utm_campaign=yelp_api_v3&utm_medium=api_v3_business_search&utm_source=TpLShpR2csZ2AtLGvsRWXw", "review_count": 96, "categories": [{"alias": "japanese", "title": "Japanese"}, {"alias": "sushi", "title": "Sushi Bars"}, {"alias": "bars", "title": "Bars"}], "rating": 4.5, "coordinates": {"latitude": 32.3559707, "longitude": -86.2648849}, "transactions": [], "price": "$$", "location": {"address1": "3004 Zelda Rd", "address2": "", "address3": "", "city": "Montgomery", "zip_code": "36106", "country": "US", "state": "AL", "display_address": ["3004 Zelda Rd", "Montgomery, AL 36106"]}, "phone": "+13348197060", "display_phone": "(334) 819-7060", "distance": 714.5974323932986}, {"id": "PmGW-cEDJy0CMbs1i2g1ew", "alias": "scott-street-deli-montgomery", "name": "Scott Street Deli", "image_url": "https://s3-media1.fl.yelpcdn.com/bphoto/l5ZnhPVZJ33r5XL6Hfysjw/o.jpg", "is_closed": false, "url": "https://www.yelp.com/biz/scott-street-deli-montgomery?adjust_creative=TpLShpR2csZ2AtLGvsRWXw&utm_campaign=yelp_api_v3&utm_medium=api_v3_business_search&utm_source=TpLShpR2csZ2AtLGvsRWXw", "review_count": 69, "categories": [{"alias": "delis", "title": "Delis"}], "rating": 4.5, "coordinates": {"latitude": 32.37356, "longitude": -86.30315}, "transactions": [], "price": "$", "location": {"address1": "412 Scott St", "address2": "", "address3": "", "city": "Montgomery", "zip_code": "36104", "country": "US", "state": "AL", "display_address": ["412 Scott St", "Montgomery, AL 36104"]}, "phone": "+13342649415", "display_phone": "(334) 264-9415", "distance": 4714.162948513107}, {"id": "XC5GTpOBIWS5TQjUOZaHFg", "alias": "so-gong-dong-tofu-and-bbq-montgomery", "name": "So Gong Dong Tofu & BBQ", "image_url": "https://s3-media1.fl.yelpcdn.com/bphoto/Rr-NFRKQGpVGNpBQBlPqjQ/o.jpg", "is_closed": false, "url": "https://www.yelp.com/biz/so-gong-dong-tofu-and-bbq-montgomery?adjust_creative=TpLShpR2csZ2AtLGvsRWXw&utm_campaign=yelp_api_v3&utm_medium=api_v3_business_search&utm_source=TpLShpR2csZ2AtLGvsRWXw", "review_count": 62, "categories": [{"alias": "korean", "title": "Korean"}], "rating": 4.5, "coordinates": {"latitude": 32.35432, "longitude": -86.21615}, "transactions": [], "price": "$$", "location": {"address1": "1633 Eastern Blvd", "address2": "", "address3": null, "city": "Montgomery", "zip_code": "36117", "country": "US", "state": "AL", "display_address": ["1633 Eastern Blvd", "Montgomery, AL 36117"]}, "phone": "+13345938400", "display_phone": "(334) 593-8400", "distance": 3955.502231154458}, {"id": "Xg7-RfCc_ouxuNNsYObVNg", "alias": "cafe-louisa-montgomery", "name": "Cafe Louisa", "image_url": "https://s3-media3.fl.yelpcdn.com/bphoto/jpUTkKPKrqipKNxSl5HLZw/o.jpg", "is_closed": false, "url": "https://www.yelp.com/biz/cafe-louisa-montgomery?adjust_creative=TpLShpR2csZ2AtLGvsRWXw&utm_campaign=yelp_api_v3&utm_medium=api_v3_business_search&utm_source=TpLShpR2csZ2AtLGvsRWXw", "review_count": 138, "categories": [{"alias": "sandwiches", "title": "Sandwiches"}, {"alias": "coffee", "title": "Coffee & Tea"}, {"alias": "juicebars", "title": "Juice Bars & Smoothies"}], "rating": 4.0, "coordinates": {"latitude": 32.358465, "longitude": -86.298}, "transactions": [], "price": "$", "location": {"address1": "503 Cloverdale Rd", "address2": "", "address3": "", "city": "Montgomery", "zip_code": "36106", "country": "US", "state": "AL", "display_address": ["503 Cloverdale Rd", "Montgomery, AL 36106"]}, "phone": "+13343561212", "display_phone": "(334) 356-1212", "distance": 3792.6508018246623}, {"id": "6pajEkMy38qRDsZ4rzYNVA", "alias": "wishbone-cafe-montgomery", "name": "Wishbone Cafe", "image_url": "https://s3-media1.fl.yelpcdn.com/bphoto/wCvVoiCcjgNmLG5SFL0Bfw/o.jpg", "is_closed": false, "url": "https://www.yelp.com/biz/wishbone-cafe-montgomery?adjust_creative=TpLShpR2csZ2AtLGvsRWXw&utm_campaign=yelp_api_v3&utm_medium=api_v3_business_search&utm_source=TpLShpR2csZ2AtLGvsRWXw", "review_count": 130, "categories": [{"alias": "seafood", "title": "Seafood"}, {"alias": "cajun", "title": "Cajun/Creole"}], "rating": 4.5, "coordinates": {"latitude": 32.381502, "longitude": -86.17248}, "transactions": [], "price": "$$", "location": {"address1": "7028 Atlanta Hwy", "address2": "", "address3": "", "city": "Montgomery", "zip_code": "36117", "country": "US", "state": "AL", "display_address": ["7028 Atlanta Hwy", "Montgomery, AL 36117"]}, "phone": "+13342447270", "display_phone": "(334) 244-7270", "distance": 8519.556778922826}, {"id": "uc-8GXCwjBIDYYrqpA73xw", "alias": "dreamland-bar-b-que-montgomery-3", "name": "Dreamland Bar-B-Que", "image_url": "https://s3-media2.fl.yelpcdn.com/bphoto/n-FoW2n96Uygnr6LydwLzw/o.jpg", "is_closed": false, "url": "https://www.yelp.com/biz/dreamland-bar-b-que-montgomery-3?adjust_creative=TpLShpR2csZ2AtLGvsRWXw&utm_campaign=yelp_api_v3&utm_medium=api_v3_business_search&utm_source=TpLShpR2csZ2AtLGvsRWXw", "review_count": 285, "categories": [{"alias": "bbq", "title": "Barbeque"}], "rating": 3.5, "coordinates": {"latitude": 32.3811453644623, "longitude": -86.3095374707001}, "transactions": [], "price": "$$", "location": {"address1": "12 W Jefferson St", "address2": null, "address3": null, "city": "Montgomery", "zip_code": "36104", "country": "US", "state": "AL", "display_address": ["12 W Jefferson St", "Montgomery, AL 36104"]}, "phone": "+13342737427", "display_phone": "(334) 273-7427", "distance": 5639.117508610485}, {"id": "jqVLoafyGVENN_eZZcLkdw", "alias": "tomatinos-pizza-and-bake-shop-montgomery", "name": "Tomatinos Pizza & Bake Shop", "image_url": "https://s3-media2.fl.yelpcdn.com/bphoto/eIfNL0QYi-GM2DgaUsQ6ZQ/o.jpg", "is_closed": false, "url": "https://www.yelp.com/biz/tomatinos-pizza-and-bake-shop-montgomery?adjust_creative=TpLShpR2csZ2AtLGvsRWXw&utm_campaign=yelp_api_v3&utm_medium=api_v3_business_search&utm_source=TpLShpR2csZ2AtLGvsRWXw", "review_count": 133, "categories": [{"alias": "pizza", "title": "Pizza"}, {"alias": "bakeries", "title": "Bakeries"}, {"alias": "coffee", "title": "Coffee & Tea"}], "rating": 4.0, "coordinates": {"latitude": 32.35838, "longitude": -86.29864}, "transactions": [], "price": "$$", "location": {"address1": "503 Cloverdale Rd", "address2": "", "address3": null, "city": "Montgomery", "zip_code": "36106", "country": "US", "state": "AL", "display_address": ["503 Cloverdale Rd", "Montgomery, AL 36106"]}, "phone": "+13342644241", "display_phone": "(334) 264-4241", "distance": 3801.3432831105383}, {"id": "CfnVtOqbuAvvp4sYTbcQZA", "alias": "leroy-montgomery", "name": "Leroy", "image_url": "https://s3-media2.fl.yelpcdn.com/bphoto/W437-6F8n-L3cv34WDDy1w/o.jpg", "is_closed": false, "url": "https://www.yelp.com/biz/leroy-montgomery?adjust_creative=TpLShpR2csZ2AtLGvsRWXw&utm_campaign=yelp_api_v3&utm_medium=api_v3_business_search&utm_source=TpLShpR2csZ2AtLGvsRWXw", "review_count": 51, "categories": [{"alias": "bars", "title": "Bars"}], "rating": 4.5, "coordinates": {"latitude": 32.3526382446289, "longitude": -86.2910079956055}, "transactions": [], "price": "$$", "location": {"address1": "2756 Boultier Ave", "address2": "", "address3": "", "city": "Montgomery", "zip_code": "36106", "country": "US", "state": "AL", "display_address": ["2756 Boultier Ave", "Montgomery, AL 36106"]}, "phone": "+13343567127", "display_phone": "(334) 356-7127", "distance": 3136.4703939661094}, {"id": "HeqCrT5Urumw20nOSYNmcg", "alias": "sol-restaurante-mexicano-and-taqueria-montgomery", "name": "Sol Restaurante Mexicano & Taqueria", "image_url": "https://s3-media3.fl.yelpcdn.com/bphoto/b0dIaFvE3zlVvNlTI33ycA/o.jpg", "is_closed": false, "url": "https://www.yelp.com/biz/sol-restaurante-mexicano-and-taqueria-montgomery?adjust_creative=TpLShpR2csZ2AtLGvsRWXw&utm_campaign=yelp_api_v3&utm_medium=api_v3_business_search&utm_source=TpLShpR2csZ2AtLGvsRWXw", "review_count": 77, "categories": [{"alias": "mexican", "title": "Mexican"}], "rating": 4.5, "coordinates": {"latitude": 32.3822329, "longitude": -86.2434822}, "transactions": [], "price": "$", "location": {"address1": "3962 Atlanta Hwy", "address2": "", "address3": null, "city": "Montgomery", "zip_code": "36109", "country": "US", "state": "AL", "display_address": ["3962 Atlanta Hwy", "Montgomery, AL 36109"]}, "phone": "+13345938250", "display_phone": "(334) 593-8250", "distance": 3247.8594438963933}, {"id": "v0l8UJTH-voh9rzI5oSSlQ", "alias": "sa-za-montgomery-3", "name": "Sa Za", "image_url": "https://s3-media2.fl.yelpcdn.com/bphoto/Jd_75FUn7Ype1p34f2ZwYw/o.jpg", "is_closed": false, "url": "https://www.yelp.com/biz/sa-za-montgomery-3?adjust_creative=TpLShpR2csZ2AtLGvsRWXw&utm_campaign=yelp_api_v3&utm_medium=api_v3_business_search&utm_source=TpLShpR2csZ2AtLGvsRWXw", "review_count": 251, "categories": [{"alias": "italian", "title": "Italian"}], "rating": 3.5, "coordinates": {"latitude": 32.37968, "longitude": -86.3108}, "transactions": [], "price": "$$", "location": {"address1": "130 Commerce St", "address2": "Ste 101", "address3": "", "city": "Montgomery", "zip_code": "36104", "country": "US", "state": "AL", "display_address": ["130 Commerce St", "Ste 101", "Montgomery, AL 36104"]}, "phone": "+13344957292", "display_phone": "(334) 495-7292", "distance": 5674.881565118838}, {"id": "EaNN19sjOsZ052y_GfJmng", "alias": "osaka-sushi-bar-montgomery", "name": "Osaka Sushi Bar", "image_url": "https://s3-media1.fl.yelpcdn.com/bphoto/rnV7Zd8MkDOmRpftoqGLXg/o.jpg", "is_closed": false, "url": "https://www.yelp.com/biz/osaka-sushi-bar-montgomery?adjust_creative=TpLShpR2csZ2AtLGvsRWXw&utm_campaign=yelp_api_v3&utm_medium=api_v3_business_search&utm_source=TpLShpR2csZ2AtLGvsRWXw", "review_count": 98, "categories": [{"alias": "japanese", "title": "Japanese"}, {"alias": "sushi", "title": "Sushi Bars"}, {"alias": "salad", "title": "Salad"}], "rating": 4.5, "coordinates": {"latitude": 32.3591304, "longitude": -86.1462654}, "transactions": [], "price": "$$", "location": {"address1": "8860 Minnie Brown Rd", "address2": "", "address3": "", "city": "Montgomery", "zip_code": "36117", "country": "US", "state": "AL", "display_address": ["8860 Minnie Brown Rd", "Montgomery, AL 36117"]}, "phone": "+13342398205", "display_phone": "(334) 239-8205", "distance": 11199.004332335679}, {"id": "bCJMollYKcdOvD40Wx-4LQ", "alias": "india-palace-montgomery-2", "name": "India Palace", "image_url": "https://s3-media2.fl.yelpcdn.com/bphoto/_XU351QOt3MoHlUc8OKf0g/o.jpg", "is_closed": false, "url": "https://www.yelp.com/biz/india-palace-montgomery-2?adjust_creative=TpLShpR2csZ2AtLGvsRWXw&utm_campaign=yelp_api_v3&utm_medium=api_v3_business_search&utm_source=TpLShpR2csZ2AtLGvsRWXw", "review_count": 77, "categories": [{"alias": "indpak", "title": "Indian"}, {"alias": "pakistani", "title": "Pakistani"}], "rating": 4.5, "coordinates": {"latitude": 32.3423353, "longitude": -86.2210988}, "transactions": [], "price": "$$", "location": {"address1": "2801 Vaughn Plaza Rd", "address2": "Ste E", "address3": "", "city": "Montgomery", "zip_code": "36116", "country": "US", "state": "AL", "display_address": ["2801 Vaughn Plaza Rd", "Ste E", "Montgomery, AL 36116"]}, "phone": "+13342459340", "display_phone": "(334) 245-9340", "distance": 3741.1896510385145}, {"id": "BhPj9fLZph1TcofvuTZT1w", "alias": "urban-cookhouse-montgomery-2", "name": "Urban Cookhouse", "image_url": "https://s3-media1.fl.yelpcdn.com/bphoto/XY8xxa8Az4ZfagFHusE4ZA/o.jpg", "is_closed": false, "url": "https://www.yelp.com/biz/urban-cookhouse-montgomery-2?adjust_creative=TpLShpR2csZ2AtLGvsRWXw&utm_campaign=yelp_api_v3&utm_medium=api_v3_business_search&utm_source=TpLShpR2csZ2AtLGvsRWXw", "review_count": 81, "categories": [{"alias": "newamerican", "title": "American (New)"}], "rating": 4.5, "coordinates": {"latitude": 32.3610168, "longitude": -86.1571675}, "transactions": [], "price": "$", "location": {"address1": "7712 Eastchase Pkwy", "address2": "", "address3": "", "city": "Montgomery", "zip_code": "36117", "country": "US", "state": "AL", "display_address": ["7712 Eastchase Pkwy", "Montgomery, AL 36117"]}, "phone": "+13342397801", "display_phone": "(334) 239-7801", "distance": 9314.059233621496}, {"id": "sc0JdC6vPv-v8ReBeviY0Q", "alias": "capitol-oyster-bar-montgomery", "name": "Capitol Oyster Bar", "image_url": "https://s3-media3.fl.yelpcdn.com/bphoto/3zbTt4cI18ZMbYmukLMNyQ/o.jpg", "is_closed": false, "url": "https://www.yelp.com/biz/capitol-oyster-bar-montgomery?adjust_creative=TpLShpR2csZ2AtLGvsRWXw&utm_campaign=yelp_api_v3&utm_medium=api_v3_business_search&utm_source=TpLShpR2csZ2AtLGvsRWXw", "review_count": 119, "categories": [{"alias": "newamerican", "title": "American (New)"}, {"alias": "seafood", "title": "Seafood"}, {"alias": "musicvenues", "title": "Music Venues"}], "rating": 4.0, "coordinates": {"latitude": 32.3923110961914, "longitude": -86.3158264160156}, "transactions": [], "price": "$$", "location": {"address1": "617 Shady St", "address2": "", "address3": "", "city": "Montgomery", "zip_code": "36104", "country": "US", "state": "AL", "display_address": ["617 Shady St", "Montgomery, AL 36104"]}, "phone": "+13342398958", "display_phone": "(334) 239-8958", "distance": 6821.3971082086755}, {"id": "SrEPv4FQBUIoQhXlS_fzWA", "alias": "k-and-j-rib-shack-montgomery", "name": "K & J Rib Shack", "image_url": "https://s3-media1.fl.yelpcdn.com/bphoto/YuA3HOy5Pvhc0ZuBuCXXYQ/o.jpg", "is_closed": false, "url": "https://www.yelp.com/biz/k-and-j-rib-shack-montgomery?adjust_creative=TpLShpR2csZ2AtLGvsRWXw&utm_campaign=yelp_api_v3&utm_medium=api_v3_business_search&utm_source=TpLShpR2csZ2AtLGvsRWXw", "review_count": 69, "categories": [{"alias": "steak", "title": "Steakhouses"}, {"alias": "bbq", "title": "Barbeque"}], "rating": 4.5, "coordinates": {"latitude": 32.32774, "longitude": -86.30754}, "transactions": [], "price": "$$", "location": {"address1": "4255 S Court St", "address2": null, "address3": null, "city": "Montgomery", "zip_code": "36105", "country": "US", "state": "AL", "display_address": ["4255 S Court St", "Montgomery, AL 36105"]}, "phone": "+13343561368", "display_phone": "(334) 356-1368", "distance": 5598.472165144919}, {"id": "0TlROr9wHWTeA6YSgptn-Q", "alias": "first-watch-montgomery-2", "name": "First Watch", "image_url": "https://s3-media1.fl.yelpcdn.com/bphoto/4fUQFvAbk30hu1Q9UC2BFQ/o.jpg", "is_closed": false, "url": "https://www.yelp.com/biz/first-watch-montgomery-2?adjust_creative=TpLShpR2csZ2AtLGvsRWXw&utm_campaign=yelp_api_v3&utm_medium=api_v3_business_search&utm_source=TpLShpR2csZ2AtLGvsRWXw", "review_count": 94, "categories": [{"alias": "newamerican", "title": "American (New)"}, {"alias": "breakfast_brunch", "title": "Breakfast & Brunch"}, {"alias": "cafes", "title": "Cafes"}], "rating": 4.0, "coordinates": {"latitude": 32.3579381, "longitude": -86.2649558}, "transactions": [], "price": "$$", "location": {"address1": "2920 Zelda Rd", "address2": null, "address3": null, "city": "Montgomery", "zip_code": "36106", "country": "US", "state": "AL", "display_address": ["2920 Zelda Rd", "Montgomery, AL 36106"]}, "phone": "+13342770802", "display_phone": "(334) 277-0802", "distance": 744.7603360968684}], [{"id": "FMFhMgx_UYOqgwtErui7HQ", "alias": "meat-boss-mobile", "name": "Meat Boss", "image_url": "https://s3-media2.fl.yelpcdn.com/bphoto/T4lEai8JBgPK7Dwtm3gijQ/o.jpg", "is_closed": false, "url": "https://www.yelp.com/biz/meat-boss-mobile?adjust_creative=TpLShpR2csZ2AtLGvsRWXw&utm_campaign=yelp_api_v3&utm_medium=api_v3_business_search&utm_source=TpLShpR2csZ2AtLGvsRWXw", "review_count": 158, "categories": [{"alias": "bbq", "title": "Barbeque"}, {"alias": "tradamerican", "title": "American (Traditional)"}, {"alias": "sandwiches", "title": "Sandwiches"}], "rating": 4.5, "coordinates": {"latitude": 30.6467027, "longitude": -88.165166}, "transactions": [], "price": "$", "location": {"address1": "5401 Cottage Hill Rd", "address2": "", "address3": "", "city": "Mobile", "zip_code": "36609", "country": "US", "state": "AL", "display_address": ["5401 Cottage Hill Rd", "Mobile, AL 36609"]}, "phone": "+12515914842", "display_phone": "(251) 591-4842", "distance": 3246.141153288143}, {"id": "I8BWDpLYrr9_XsB93G0pqw", "alias": "mediterranean-sandwich-mobile-4", "name": "Mediterranean Sandwich", "image_url": "https://s3-media4.fl.yelpcdn.com/bphoto/8mUNa_mhuuAoq1gzcO7WXg/o.jpg", "is_closed": false, "url": "https://www.yelp.com/biz/mediterranean-sandwich-mobile-4?adjust_creative=TpLShpR2csZ2AtLGvsRWXw&utm_campaign=yelp_api_v3&utm_medium=api_v3_business_search&utm_source=TpLShpR2csZ2AtLGvsRWXw", "review_count": 192, "categories": [{"alias": "mediterranean", "title": "Mediterranean"}, {"alias": "sandwiches", "title": "Sandwiches"}], "rating": 4.5, "coordinates": {"latitude": 30.69108, "longitude": -88.04464}, "transactions": [], "price": "$", "location": {"address1": "274 Dauphin St", "address2": "", "address3": "", "city": "Mobile", "zip_code": "36602", "country": "US", "state": "AL", "display_address": ["274 Dauphin St", "Mobile, AL 36602"]}, "phone": "+12515453161", "display_phone": "(251) 545-3161", "distance": 9955.308460001215}, {"id": "8Sf-PI4Au3ekhC8F9NG5ww", "alias": "kitchen-on-george-mobile", "name": "Kitchen On George", "image_url": "https://s3-media1.fl.yelpcdn.com/bphoto/lr_CICsTPQ97pFyBA4wy5Q/o.jpg", "is_closed": false, "url": "https://www.yelp.com/biz/kitchen-on-george-mobile?adjust_creative=TpLShpR2csZ2AtLGvsRWXw&utm_campaign=yelp_api_v3&utm_medium=api_v3_business_search&utm_source=TpLShpR2csZ2AtLGvsRWXw", "review_count": 225, "categories": [{"alias": "newamerican", "title": "American (New)"}], "rating": 4.5, "coordinates": {"latitude": 30.680599, "longitude": -88.058571}, "transactions": [], "price": "$$", "location": {"address1": "351A George St", "address2": "", "address3": "", "city": "Mobile", "zip_code": "36604", "country": "US", "state": "AL", "display_address": ["351A George St", "Mobile, AL 36604"]}, "phone": "+12514368890", "display_phone": "(251) 436-8890", "distance": 8436.994113816321}, {"id": "6kS61C7icvgguI7703CCPQ", "alias": "half-shell-oyster-house-mobile", "name": "Half Shell Oyster House", "image_url": "https://s3-media4.fl.yelpcdn.com/bphoto/_qPo_Y7NqJemzbHVW0nyVg/o.jpg", "is_closed": false, "url": "https://www.yelp.com/biz/half-shell-oyster-house-mobile?adjust_creative=TpLShpR2csZ2AtLGvsRWXw&utm_campaign=yelp_api_v3&utm_medium=api_v3_business_search&utm_source=TpLShpR2csZ2AtLGvsRWXw", "review_count": 215, "categories": [{"alias": "seafood", "title": "Seafood"}], "rating": 4.5, "coordinates": {"latitude": 30.67697, "longitude": -88.1309799}, "transactions": [], "price": "$$", "location": {"address1": "3654 Airport Blvd", "address2": "Ste F", "address3": "", "city": "Mobile", "zip_code": "36608", "country": "US", "state": "AL", "display_address": ["3654 Airport Blvd", "Ste F", "Mobile, AL 36608"]}, "phone": "+12513389350", "display_phone": "(251) 338-9350", "distance": 1653.586809570518}, {"id": "qYiWkPZu0jTFGcs0im_7cw", "alias": "dumbwaiter-restaurant-mobile-3", "name": "Dumbwaiter Restaurant", "image_url": "https://s3-media3.fl.yelpcdn.com/bphoto/TxENnogOM4Meicmax9KS8A/o.jpg", "is_closed": false, "url": "https://www.yelp.com/biz/dumbwaiter-restaurant-mobile-3?adjust_creative=TpLShpR2csZ2AtLGvsRWXw&utm_campaign=yelp_api_v3&utm_medium=api_v3_business_search&utm_source=TpLShpR2csZ2AtLGvsRWXw", "review_count": 188, "categories": [{"alias": "southern", "title": "Southern"}, {"alias": "tradamerican", "title": "American (Traditional)"}, {"alias": "seafood", "title": "Seafood"}], "rating": 4.5, "coordinates": {"latitude": 30.69129, "longitude": -88.04248}, "transactions": [], "price": "$$$", "location": {"address1": "167 Dauphin St", "address2": "", "address3": "", "city": "Mobile", "zip_code": "36602", "country": "US", "state": "AL", "display_address": ["167 Dauphin St", "Mobile, AL 36602"]}, "phone": "+12514453802", "display_phone": "(251) 445-3802", "distance": 10163.246583310472}, {"id": "e7UHJgdoTGXSxidyfjD1ng", "alias": "wintzells-oyster-house-mobile-6", "name": "Wintzell's Oyster House", "image_url": "https://s3-media2.fl.yelpcdn.com/bphoto/1dHZZ9D7xskBR73FhNMI8Q/o.jpg", "is_closed": false, "url": "https://www.yelp.com/biz/wintzells-oyster-house-mobile-6?adjust_creative=TpLShpR2csZ2AtLGvsRWXw&utm_campaign=yelp_api_v3&utm_medium=api_v3_business_search&utm_source=TpLShpR2csZ2AtLGvsRWXw", "review_count": 400, "categories": [{"alias": "seafood", "title": "Seafood"}, {"alias": "southern", "title": "Southern"}, {"alias": "soup", "title": "Soup"}], "rating": 4.0, "coordinates": {"latitude": 30.68876, "longitude": -88.04976}, "transactions": [], "price": "$$", "location": {"address1": "605 Dauphin St", "address2": "", "address3": "", "city": "Mobile", "zip_code": "36602", "country": "US", "state": "AL", "display_address": ["605 Dauphin St", "Mobile, AL 36602"]}, "phone": "+12514324605", "display_phone": "(251) 432-4605", "distance": 9428.2535934094}, {"id": "y7NCQPzNXgLXN_sXxNB0Sg", "alias": "7-spice-grocery-and-grill-mobile", "name": "7 Spice Grocery & Grill", "image_url": "https://s3-media4.fl.yelpcdn.com/bphoto/8ayy27Ds1Igjvm9MCiMvBg/o.jpg", "is_closed": false, "url": "https://www.yelp.com/biz/7-spice-grocery-and-grill-mobile?adjust_creative=TpLShpR2csZ2AtLGvsRWXw&utm_campaign=yelp_api_v3&utm_medium=api_v3_business_search&utm_source=TpLShpR2csZ2AtLGvsRWXw", "review_count": 110, "categories": [{"alias": "mediterranean", "title": "Mediterranean"}, {"alias": "intlgrocery", "title": "International Grocery"}, {"alias": "greek", "title": "Greek"}], "rating": 4.5, "coordinates": {"latitude": 30.6763594597578, "longitude": -88.1390719860792}, "transactions": [], "price": "$$", "location": {"address1": "3762 Airport Blvd", "address2": "", "address3": "", "city": "Mobile", "zip_code": "36608", "country": "US", "state": "AL", "display_address": ["3762 Airport Blvd", "Mobile, AL 36608"]}, "phone": "+12517251177", "display_phone": "(251) 725-1177", "distance": 889.2852464406509}, {"id": "liOIAlfLxfCSOpF9eFMq-Q", "alias": "reginas-kitchen-mobile", "name": "Regina's Kitchen", "image_url": "https://s3-media3.fl.yelpcdn.com/bphoto/ehqiMk1QO7NMO_oz-xq-OA/o.jpg", "is_closed": false, "url": "https://www.yelp.com/biz/reginas-kitchen-mobile?adjust_creative=TpLShpR2csZ2AtLGvsRWXw&utm_campaign=yelp_api_v3&utm_medium=api_v3_business_search&utm_source=TpLShpR2csZ2AtLGvsRWXw", "review_count": 85, "categories": [{"alias": "sandwiches", "title": "Sandwiches"}, {"alias": "salad", "title": "Salad"}, {"alias": "soup", "title": "Soup"}], "rating": 5.0, "coordinates": {"latitude": 30.6752243, "longitude": -88.0894727}, "transactions": [], "price": "$", "location": {"address1": "2056 Government St", "address2": "", "address3": "", "city": "Mobile", "zip_code": "36606", "country": "US", "state": "AL", "display_address": ["2056 Government St", "Mobile, AL 36606"]}, "phone": "+12514762777", "display_phone": "(251) 476-2777", "distance": 5433.642653161257}, {"id": "4vVI-p0Bi_3dPuCFG_hamQ", "alias": "yak-the-kathmandu-kitchen-mobile", "name": "Yak The Kathmandu Kitchen", "image_url": "https://s3-media2.fl.yelpcdn.com/bphoto/2ZOhCLXrw6uC0101IsOtJg/o.jpg", "is_closed": false, "url": "https://www.yelp.com/biz/yak-the-kathmandu-kitchen-mobile?adjust_creative=TpLShpR2csZ2AtLGvsRWXw&utm_campaign=yelp_api_v3&utm_medium=api_v3_business_search&utm_source=TpLShpR2csZ2AtLGvsRWXw", "review_count": 166, "categories": [{"alias": "indpak", "title": "Indian"}, {"alias": "himalayan", "title": "Himalayan/Nepalese"}], "rating": 4.0, "coordinates": {"latitude": 30.6895796, "longitude": -88.119848}, "transactions": [], "price": "$$", "location": {"address1": "3210 Dauphin St", "address2": "", "address3": "", "city": "Mobile", "zip_code": "36606", "country": "US", "state": "AL", "display_address": ["3210 Dauphin St", "Mobile, AL 36606"]}, "phone": "+12512870115", "display_phone": "(251) 287-0115", "distance": 3260.282254388753}, {"id": "USEXi6yeoNNeqtTSqQCPVg", "alias": "the-noble-south-mobile-2", "name": "The Noble South", "image_url": "https://s3-media2.fl.yelpcdn.com/bphoto/0vS3dEetmumkSKjWqAca8Q/o.jpg", "is_closed": false, "url": "https://www.yelp.com/biz/the-noble-south-mobile-2?adjust_creative=TpLShpR2csZ2AtLGvsRWXw&utm_campaign=yelp_api_v3&utm_medium=api_v3_business_search&utm_source=TpLShpR2csZ2AtLGvsRWXw", "review_count": 159, "categories": [{"alias": "newamerican", "title": "American (New)"}, {"alias": "southern", "title": "Southern"}, {"alias": "breakfast_brunch", "title": "Breakfast & Brunch"}], "rating": 4.5, "coordinates": {"latitude": 30.6912994384766, "longitude": -88.0430145263672}, "transactions": ["pickup"], "price": "$$", "location": {"address1": "203 Dauphin St", "address2": "", "address3": "", "city": "Mobile", "zip_code": "36602", "country": "US", "state": "AL", "display_address": ["203 Dauphin St", "Mobile, AL 36602"]}, "phone": "+12516906824", "display_phone": "(251) 690-6824", "distance": 10113.483402772072}, {"id": "x7SQPfz75loSrfxJLUj0fg", "alias": "the-royal-scam-mobile", "name": "The Royal Scam", "image_url": "https://s3-media2.fl.yelpcdn.com/bphoto/-mxpC7sRd7ApPAdkEvSUBQ/o.jpg", "is_closed": false, "url": "https://www.yelp.com/biz/the-royal-scam-mobile?adjust_creative=TpLShpR2csZ2AtLGvsRWXw&utm_campaign=yelp_api_v3&utm_medium=api_v3_business_search&utm_source=TpLShpR2csZ2AtLGvsRWXw", "review_count": 245, "categories": [{"alias": "seafood", "title": "Seafood"}, {"alias": "steak", "title": "Steakhouses"}, {"alias": "cocktailbars", "title": "Cocktail Bars"}], "rating": 4.0, "coordinates": {"latitude": 30.69062, "longitude": -88.0406}, "transactions": [], "price": "$$", "location": {"address1": "72 S Royal St", "address2": "", "address3": "", "city": "Mobile", "zip_code": "36602", "country": "US", "state": "AL", "display_address": ["72 S Royal St", "Mobile, AL 36602"]}, "phone": "+12514327226", "display_phone": "(251) 432-7226", "distance": 10328.728467290095}, {"id": "8kisZg3Nv7WZ8FzPGq8RtQ", "alias": "marys-southern-cooking-mobile", "name": "Mary's Southern Cooking", "image_url": "https://s3-media1.fl.yelpcdn.com/bphoto/tWxGxzD27h0DkgxE-Q_BaA/o.jpg", "is_closed": false, "url": "https://www.yelp.com/biz/marys-southern-cooking-mobile?adjust_creative=TpLShpR2csZ2AtLGvsRWXw&utm_campaign=yelp_api_v3&utm_medium=api_v3_business_search&utm_source=TpLShpR2csZ2AtLGvsRWXw", "review_count": 88, "categories": [{"alias": "soulfood", "title": "Soul Food"}], "rating": 4.5, "coordinates": {"latitude": 30.69974, "longitude": -88.11206}, "transactions": [], "price": "$", "location": {"address1": "3011 Spring Hill Ave", "address2": null, "address3": "", "city": "Mobile", "zip_code": "36607", "country": "US", "state": "AL", "display_address": ["3011 Spring Hill Ave", "Mobile, AL 36607"]}, "phone": "+12514762232", "display_phone": "(251) 476-2232", "distance": 4575.447669808578}, {"id": "HnAcJCYNnqDDMxCh5KQVFQ", "alias": "spot-of-tea-mobile", "name": "Spot of Tea", "image_url": "https://s3-media2.fl.yelpcdn.com/bphoto/cLidD-3zTz6JoC51-aS9VQ/o.jpg", "is_closed": false, "url": "https://www.yelp.com/biz/spot-of-tea-mobile?adjust_creative=TpLShpR2csZ2AtLGvsRWXw&utm_campaign=yelp_api_v3&utm_medium=api_v3_business_search&utm_source=TpLShpR2csZ2AtLGvsRWXw", "review_count": 341, "categories": [{"alias": "coffee", "title": "Coffee & Tea"}, {"alias": "breakfast_brunch", "title": "Breakfast & Brunch"}], "rating": 4.0, "coordinates": {"latitude": 30.69096, "longitude": -88.04529}, "transactions": ["pickup"], "price": "$$", "location": {"address1": "310 Dauphin St", "address2": "", "address3": "", "city": "Mobile", "zip_code": "36602", "country": "US", "state": "AL", "display_address": ["310 Dauphin St", "Mobile, AL 36602"]}, "phone": "+12514339009", "display_phone": "(251) 433-9009", "distance": 9890.462565138563}, {"id": "F9Momht3JOac61H9mEFFGg", "alias": "the-brick-pit-mobile", "name": "The Brick Pit", "image_url": "https://s3-media2.fl.yelpcdn.com/bphoto/uWNtOefq1F8ZglB1NHU_1A/o.jpg", "is_closed": false, "url": "https://www.yelp.com/biz/the-brick-pit-mobile?adjust_creative=TpLShpR2csZ2AtLGvsRWXw&utm_campaign=yelp_api_v3&utm_medium=api_v3_business_search&utm_source=TpLShpR2csZ2AtLGvsRWXw", "review_count": 187, "categories": [{"alias": "bbq", "title": "Barbeque"}], "rating": 4.0, "coordinates": {"latitude": 30.69015, "longitude": -88.16887}, "transactions": [], "price": "$$", "location": {"address1": "5456 Old Shell Rd", "address2": "", "address3": "", "city": "Mobile", "zip_code": "36608", "country": "US", "state": "AL", "display_address": ["5456 Old Shell Rd", "Mobile, AL 36608"]}, "phone": "", "display_phone": "", "distance": 3041.122963777424}, {"id": "4g9G0S1o4A1Z4lW-Fksr_w", "alias": "noja-mobile", "name": "NoJa", "image_url": "https://s3-media4.fl.yelpcdn.com/bphoto/6n6N8JNe58HqJNqLBIkR_g/o.jpg", "is_closed": false, "url": "https://www.yelp.com/biz/noja-mobile?adjust_creative=TpLShpR2csZ2AtLGvsRWXw&utm_campaign=yelp_api_v3&utm_medium=api_v3_business_search&utm_source=TpLShpR2csZ2AtLGvsRWXw", "review_count": 108, "categories": [{"alias": "asianfusion", "title": "Asian Fusion"}, {"alias": "newamerican", "title": "American (New)"}], "rating": 4.5, "coordinates": {"latitude": 30.6912956237793, "longitude": -88.0448226928711}, "transactions": [], "price": "$$$", "location": {"address1": "6 N Jackson St", "address2": "", "address3": "", "city": "Mobile", "zip_code": "36602", "country": "US", "state": "AL", "display_address": ["6 N Jackson St", "Mobile, AL 36602"]}, "phone": "+12514330377", "display_phone": "(251) 433-0377", "distance": 9943.660791344519}, {"id": "u3JHtzuQRF1wXsh3LrzBqw", "alias": "pour-baby-mobile", "name": "Pour Baby", "image_url": "https://s3-media1.fl.yelpcdn.com/bphoto/GjszsDHFTklcIaU92xbvkA/o.jpg", "is_closed": false, "url": "https://www.yelp.com/biz/pour-baby-mobile?adjust_creative=TpLShpR2csZ2AtLGvsRWXw&utm_campaign=yelp_api_v3&utm_medium=api_v3_business_search&utm_source=TpLShpR2csZ2AtLGvsRWXw", "review_count": 62, "categories": [{"alias": "wine_bars", "title": "Wine Bars"}, {"alias": "tapasmallplates", "title": "Tapas/Small Plates"}, {"alias": "beerbar", "title": "Beer Bar"}], "rating": 4.5, "coordinates": {"latitude": 30.68295, "longitude": -88.1999}, "transactions": [], "price": "$$", "location": {"address1": "6808 Airport Blvd", "address2": "Ste H", "address3": "", "city": "Mobile", "zip_code": "36608", "country": "US", "state": "AL", "display_address": ["6808 Airport Blvd", "Ste H", "Mobile, AL 36608"]}, "phone": "+12513433555", "display_phone": "(251) 343-3555", "distance": 5347.561898358848}, {"id": "aNkBMzm-UUvoTPeYrvfG1g", "alias": "osmans-restaurant-mobile", "name": "Osman's Restaurant", "image_url": "https://s3-media1.fl.yelpcdn.com/bphoto/zr800C6PXSWv6m1Ai5sgYQ/o.jpg", "is_closed": false, "url": "https://www.yelp.com/biz/osmans-restaurant-mobile?adjust_creative=TpLShpR2csZ2AtLGvsRWXw&utm_campaign=yelp_api_v3&utm_medium=api_v3_business_search&utm_source=TpLShpR2csZ2AtLGvsRWXw", "review_count": 63, "categories": [{"alias": "italian", "title": "Italian"}], "rating": 4.5, "coordinates": {"latitude": 30.6551208, "longitude": -88.1025543}, "transactions": [], "price": "$$$", "location": {"address1": "2579 Halls Mill Rd", "address2": "", "address3": "", "city": "Mobile", "zip_code": "36606", "country": "US", "state": "AL", "display_address": ["2579 Halls Mill Rd", "Mobile, AL 36606"]}, "phone": "+12514790006", "display_phone": "(251) 479-0006", "distance": 4511.331768748501}, {"id": "emLWofJI-wqhPW9_1dbH2Q", "alias": "rice-asian-grill-and-sushi-bar-mobile", "name": "Rice Asian Grill & Sushi Bar", "image_url": "https://s3-media2.fl.yelpcdn.com/bphoto/SeH3toPofPiLROekLtrJkg/o.jpg", "is_closed": false, "url": "https://www.yelp.com/biz/rice-asian-grill-and-sushi-bar-mobile?adjust_creative=TpLShpR2csZ2AtLGvsRWXw&utm_campaign=yelp_api_v3&utm_medium=api_v3_business_search&utm_source=TpLShpR2csZ2AtLGvsRWXw", "review_count": 74, "categories": [{"alias": "asianfusion", "title": "Asian Fusion"}, {"alias": "sushi", "title": "Sushi Bars"}, {"alias": "thai", "title": "Thai"}], "rating": 4.5, "coordinates": {"latitude": 30.6380815, "longitude": -88.1401708}, "transactions": [], "price": "$$", "location": {"address1": "3964 Government Blvd", "address2": "", "address3": "", "city": "Mobile", "zip_code": "36693", "country": "US", "state": "AL", "display_address": ["3964 Government Blvd", "Mobile, AL 36693"]}, "phone": "+12513788083", "display_phone": "(251) 378-8083", "distance": 3684.553579153283}, {"id": "n_4ALmGd_DuUQ9ffE7kNZQ", "alias": "dauphins-mobile-2", "name": "Dauphin's", "image_url": "https://s3-media3.fl.yelpcdn.com/bphoto/eNZuyVlGK7HQO7Kevt7fDw/o.jpg", "is_closed": false, "url": "https://www.yelp.com/biz/dauphins-mobile-2?adjust_creative=TpLShpR2csZ2AtLGvsRWXw&utm_campaign=yelp_api_v3&utm_medium=api_v3_business_search&utm_source=TpLShpR2csZ2AtLGvsRWXw", "review_count": 134, "categories": [{"alias": "seafood", "title": "Seafood"}, {"alias": "sportsbars", "title": "Sports Bars"}, {"alias": "tradamerican", "title": "American (Traditional)"}], "rating": 4.0, "coordinates": {"latitude": 30.692070783066, "longitude": -88.0409842552005}, "transactions": [], "price": "$$$", "location": {"address1": "107 St Francis St", "address2": "Ste 3400", "address3": null, "city": "Mobile", "zip_code": "36602", "country": "US", "state": "AL", "display_address": ["107 St Francis St", "Ste 3400", "Mobile, AL 36602"]}, "phone": "+12514440200", "display_phone": "(251) 444-0200", "distance": 10321.960602892601}, {"id": "7ZOHIfO4INFm-MUH_UVknA", "alias": "thai-diner-mobile", "name": "Thai Diner", "image_url": "https://s3-media3.fl.yelpcdn.com/bphoto/m8FmmbS7yMZHfg3ur1TiDQ/o.jpg", "is_closed": false, "url": "https://www.yelp.com/biz/thai-diner-mobile?adjust_creative=TpLShpR2csZ2AtLGvsRWXw&utm_campaign=yelp_api_v3&utm_medium=api_v3_business_search&utm_source=TpLShpR2csZ2AtLGvsRWXw", "review_count": 62, "categories": [{"alias": "thai", "title": "Thai"}], "rating": 4.5, "coordinates": {"latitude": 30.6737148016691, "longitude": -88.1904979795218}, "transactions": [], "price": "$$", "location": {"address1": "853 Hillcrest Rd", "address2": "", "address3": "", "city": "Mobile", "zip_code": "36695", "country": "US", "state": "AL", "display_address": ["853 Hillcrest Rd", "Mobile, AL 36695"]}, "phone": "+12513017496", "display_phone": "(251) 301-7496", "distance": 4271.607005296093}]]}