{"total": 3500, "businesses": [[{"id": "o3edBEVjRcYJnQWrSFd9Bg", "alias": "marukame-udon-honolulu", "name": "Marukame Udon", "image_url": "https://s3-media2.fl.yelpcdn.com/bphoto/OhmBpUsQVw6lBboi4WXm5Q/o.jpg", "is_closed": false, "url": "https://www.yelp.com/biz/marukame-udon-honolulu?adjust_creative=TpLShpR2csZ2AtLGvsRWXw&utm_campaign=yelp_api_v3&utm_medium=api_v3_business_search&utm_source=TpLShpR2csZ2AtLGvsRWXw", "review_count": 7049, "categories": [{"alias": "japanese", "title": "Japanese"}, {"alias": "noodles", "title": "Noodles"}], "rating": 4.5, "coordinates": {"latitude": 21.2794944288564, "longitude": -157.825984776683}, "transactions": [], "price": "$", "location": {"address1": "2310 Kuhio Ave", "address2": "", "address3": "", "city": "Honolulu", "zip_code": "96815", "country": "US", "state": "HI", "display_address": ["2310 Kuhio Ave", "Honolulu, HI 96815"]}, "phone": "+18089316000", "display_phone": "(808) 931-6000", "distance": 4171.93112731478}, {"id": "GG55nmUtP4VvH3eoGLqhwQ", "alias": "ono-seafood-honolulu", "name": "Ono Seafood", "image_url": "https://s3-media2.fl.yelpcdn.com/bphoto/4uqJUgKPMD0pFV4Ss20dnQ/o.jpg", "is_closed": false, "url": "https://www.yelp.com/biz/ono-seafood-honolulu?adjust_creative=TpLShpR2csZ2AtLGvsRWXw&utm_campaign=yelp_api_v3&utm_medium=api_v3_business_search&utm_source=TpLShpR2csZ2AtLGvsRWXw", "review_count": 2424, "categories": [{"alias": "hawaiian", "title": "Hawaiian"}, {"alias": "seafood", "title": "Seafood"}, {"alias": "poke", "title": "Poke"}], "rating": 4.5, "coordinates": {"latitude": 21.28093, "longitude": -157.81387}, "transactions": [], "price": "$", "location": {"address1": "747 Kapahulu Ave", "address2": "", "address3": "", "city": "Honolulu", "zip_code": "96816", "country": "US", "state": "HI", "display_address": ["747 Kapahulu Ave", "Honolulu, HI 96816"]}, "phone": "+18087324806", "display_phone": "(808) 732-4806", "distance": 4775.834419144401}, {"id": "e_AUsOWI72nSLtzo-HpQrA", "alias": "musubi-cafe-iyasume-honolulu", "name": "Musubi Cafe Iyasume", "image_url": "https://s3-media2.fl.yelpcdn.com/bphoto/fWsqGYujJhOAx-K0EJfF1w/o.jpg", "is_closed": false, "url": "https://www.yelp.com/biz/musubi-cafe-iyasume-honolulu?adjust_creative=TpLShpR2csZ2AtLGvsRWXw&utm_campaign=yelp_api_v3&utm_medium=api_v3_business_search&utm_source=TpLShpR2csZ2AtLGvsRWXw", "review_count": 2478, "categories": [{"alias": "japanese", "title": "Japanese"}, {"alias": "hawaiian", "title": "Hawaiian"}, {"alias": "hotdogs", "title": "Fast Food"}], "rating": 4.5, "coordinates": {"latitude": 21.2764427274494, "longitude": -157.823775991203}, "transactions": [], "price": "$", "location": {"address1": "2427 Kuhio Ave Ground Fl", "address2": "", "address3": "Aqua Pacific Monarch Hotel", "city": "Honolulu", "zip_code": "96815", "country": "US", "state": "HI", "display_address": ["2427 Kuhio Ave Ground Fl", "Aqua Pacific Monarch Hotel", "Honolulu, HI 96815"]}, "phone": "+18089210168", "display_phone": "(808) 921-0168", "distance": 4579.692805072233}, {"id": "I4Fg_jFodQHQlQBVn1aF3g", "alias": "helenas-hawaiian-food-honolulu", "name": "Helena's Hawaiian Food", "image_url": "https://s3-media4.fl.yelpcdn.com/bphoto/EnlR93NQaoD2iaMK29TYrA/o.jpg", "is_closed": false, "url": "https://www.yelp.com/biz/helenas-hawaiian-food-honolulu?adjust_creative=TpLShpR2csZ2AtLGvsRWXw&utm_campaign=yelp_api_v3&utm_medium=api_v3_business_search&utm_source=TpLShpR2csZ2AtLGvsRWXw", "review_count": 2071, "categories": [{"alias": "hawaiian", "title": "Hawaiian"}], "rating": 4.5, "coordinates": {"latitude": 21.33095, "longitude": -157.8651}, "transactions": [], "price": "$$", "location": {"address1": "1240 N School St", "address2": "", "address3": "", "city": "Honolulu", "zip_code": "96817", "country": "US", "state": "HI", "display_address": ["1240 N School St", "Honolulu, HI 96817"]}, "phone": "+18088458044", "display_phone": "(808) 845-8044", "distance": 2911.240965211897}, {"id": "jND55lN9oCEswxpKcQvzXg", "alias": "liliha-bakery-honolulu-2", "name": "Liliha Bakery", "image_url": "https://s3-media4.fl.yelpcdn.com/bphoto/cTErm1ouem87eyN_EAAoHw/o.jpg", "is_closed": false, "url": "https://www.yelp.com/biz/liliha-bakery-honolulu-2?adjust_creative=TpLShpR2csZ2AtLGvsRWXw&utm_campaign=yelp_api_v3&utm_medium=api_v3_business_search&utm_source=TpLShpR2csZ2AtLGvsRWXw", "review_count": 2166, "categories": [{"alias": "bakeries", "title": "Bakeries"}, {"alias": "diners", "title": "Diners"}, {"alias": "cupcakes", "title": "Cupcakes"}], "rating": 4.5, "coordinates": {"latitude": 21.3242099789429, "longitude": -157.858041772294}, "transactions": [], "price": "$", "location": {"address1": "515 N Kuakini St", "address2": "", "address3": "", "city": "Honolulu", "zip_code": "96817", "country": "US", "state": "HI", "display_address": ["515 N Kuakini St", "Honolulu, HI 96817"]}, "phone": "+18085311651", "display_phone": "(808) 531-1651", "distance": 1857.8944845782892}, {"id": "ojq84p8G6Pg0NccdDdN1jA", "alias": "dukes-waikiki-honolulu-2", "name": "Duke's Waikiki", "image_url": "https://s3-media3.fl.yelpcdn.com/bphoto/gSKZELvdu7rxfQNVzC4l_g/o.jpg", "is_closed": false, "url": "https://www.yelp.com/biz/dukes-waikiki-honolulu-2?adjust_creative=TpLShpR2csZ2AtLGvsRWXw&utm_campaign=yelp_api_v3&utm_medium=api_v3_business_search&utm_source=TpLShpR2csZ2AtLGvsRWXw", "review_count": 4477, "categories": [{"alias": "hawaiian", "title": "Hawaiian"}, {"alias": "seafood", "title": "Seafood"}, {"alias": "cocktailbars", "title": "Cocktail Bars"}], "rating": 4.0, "coordinates": {"latitude": 21.2766593329125, "longitude": -157.82779908421}, "transactions": [], "price": "$$", "location": {"address1": "2335 Kalakaua Ave", "address2": "Ste 116", "address3": "", "city": "Honolulu", "zip_code": "96815", "country": "US", "state": "HI", "display_address": ["2335 Kalakaua Ave", "Ste 116", "Honolulu, HI 96815"]}, "phone": "+18089222268", "display_phone": "(808) 922-2268", "distance": 4369.13889908575}, {"id": "aYkyqjHbwjiOcZaFmWDhTg", "alias": "alan-wongs-restaurant-honolulu", "name": "Alan Wong's Restaurant", "image_url": "https://s3-media4.fl.yelpcdn.com/bphoto/9lp3rh_NPorIcIQW6RokCg/o.jpg", "is_closed": false, "url": "https://www.yelp.com/biz/alan-wongs-restaurant-honolulu?adjust_creative=TpLShpR2csZ2AtLGvsRWXw&utm_campaign=yelp_api_v3&utm_medium=api_v3_business_search&utm_source=TpLShpR2csZ2AtLGvsRWXw", "review_count": 1873, "categories": [{"alias": "hawaiian", "title": "Hawaiian"}, {"alias": "asianfusion", "title": "Asian Fusion"}], "rating": 4.0, "coordinates": {"latitude": 21.295282, "longitude": -157.831576}, "transactions": [], "price": "$$$$", "location": {"address1": "1857 S King St", "address2": "", "address3": "", "city": "Honolulu", "zip_code": "96826", "country": "US", "state": "HI", "display_address": ["1857 S King St", "Honolulu, HI 96826"]}, "phone": "+18089492526", "display_phone": "(808) 949-2526", "distance": 2378.593213281381}, {"id": "7vjcWaAOZ1aMH5ysi9liGQ", "alias": "roys-waikiki-honolulu", "name": "Roy's Waikiki", "image_url": "https://s3-media3.fl.yelpcdn.com/bphoto/1e7h8ByEjS1ytdSQ5YCA2A/o.jpg", "is_closed": false, "url": "https://www.yelp.com/biz/roys-waikiki-honolulu?adjust_creative=TpLShpR2csZ2AtLGvsRWXw&utm_campaign=yelp_api_v3&utm_medium=api_v3_business_search&utm_source=TpLShpR2csZ2AtLGvsRWXw", "review_count": 2028, "categories": [{"alias": "seafood", "title": "Seafood"}, {"alias": "hawaiian", "title": "Hawaiian"}, {"alias": "asianfusion", "title": "Asian Fusion"}], "rating": 4.5, "coordinates": {"latitude": 21.278637, "longitude": -157.831707}, "transactions": [], "price": "$$$", "location": {"address1": "226 Lewers St", "address2": "", "address3": "", "city": "Honolulu", "zip_code": "96815", "country": "US", "state": "HI", "display_address": ["226 Lewers St", "Honolulu, HI 96815"]}, "phone": "+18089237697", "display_phone": "(808) 923-7697", "distance": 4009.9755273657065}, {"id": "sDlYSTdgZCx0-3cRetKn8A", "alias": "diamond-head-state-monument-honolulu", "name": "Diamond Head State Monument", "image_url": "https://s3-media4.fl.yelpcdn.com/bphoto/IrH89b-2FYRF4CCRvtca8Q/o.jpg", "is_closed": false, "url": "https://www.yelp.com/biz/diamond-head-state-monument-honolulu?adjust_creative=TpLShpR2csZ2AtLGvsRWXw&utm_campaign=yelp_api_v3&utm_medium=api_v3_business_search&utm_source=TpLShpR2csZ2AtLGvsRWXw", "review_count": 1432, "categories": [{"alias": "parks", "title": "Parks"}, {"alias": "hiking", "title": "Hiking"}], "rating": 4.5, "coordinates": {"latitude": 21.2630507290704, "longitude": -157.803958654404}, "transactions": [], "location": {"address1": "Diamond Head Rd", "address2": null, "address3": "", "city": "Honolulu", "zip_code": "96816", "country": "US", "state": "HI", "display_address": ["Diamond Head Rd", "Honolulu, HI 96816"]}, "phone": "+18085870300", "display_phone": "(808) 587-0300", "distance": 6964.133188642375}, {"id": "OD2az4BHKbj1OLfk9rRDbA", "alias": "lucky-belly-honolulu", "name": "Lucky Belly", "image_url": "https://s3-media3.fl.yelpcdn.com/bphoto/BheLANkaBTIIrCBRaPHEUg/o.jpg", "is_closed": false, "url": "https://www.yelp.com/biz/lucky-belly-honolulu?adjust_creative=TpLShpR2csZ2AtLGvsRWXw&utm_campaign=yelp_api_v3&utm_medium=api_v3_business_search&utm_source=TpLShpR2csZ2AtLGvsRWXw", "review_count": 1488, "categories": [{"alias": "bars", "title": "Bars"}, {"alias": "asianfusion", "title": "Asian Fusion"}, {"alias": "ramen", "title": "Ramen"}], "rating": 4.5, "coordinates": {"latitude": 21.31181, "longitude": -157.86213}, "transactions": [], "price": "$$", "location": {"address1": "50 N Hotel St", "address2": "", "address3": "", "city": "Honolulu", "zip_code": "96817", "country": "US", "state": "HI", "display_address": ["50 N Hotel St", "Honolulu, HI 96817"]}, "phone": "+18085311888", "display_phone": "(808) 531-1888", "distance": 1775.3329000353763}, {"id": "x7QZiRTFiYO5zdbh8_gRzw", "alias": "sweet-home-cafe-honolulu-3", "name": "Sweet Home Cafe", "image_url": "https://s3-media2.fl.yelpcdn.com/bphoto/wDLOSl5Y3uN-Fr60-eL7sA/o.jpg", "is_closed": false, "url": "https://www.yelp.com/biz/sweet-home-cafe-honolulu-3?adjust_creative=TpLShpR2csZ2AtLGvsRWXw&utm_campaign=yelp_api_v3&utm_medium=api_v3_business_search&utm_source=TpLShpR2csZ2AtLGvsRWXw", "review_count": 1358, "categories": [{"alias": "taiwanese", "title": "Taiwanese"}, {"alias": "hotpot", "title": "Hot Pot"}, {"alias": "soup", "title": "Soup"}], "rating": 4.5, "coordinates": {"latitude": 21.2938699, "longitude": -157.82595}, "transactions": [], "price": "$$", "location": {"address1": "2334 S King St", "address2": "", "address3": "", "city": "Honolulu", "zip_code": "96826", "country": "US", "state": "HI", "display_address": ["2334 S King St", "Honolulu, HI 96826"]}, "phone": "+18089473707", "display_phone": "(808) 947-3707", "distance": 2881.199229604202}, {"id": "D9s3QQtmc-FP1WyMlGKnZg", "alias": "tonkatsu-ginza-bairin-honolulu", "name": "Tonkatsu Ginza Bairin", "image_url": "https://s3-media1.fl.yelpcdn.com/bphoto/ap2GTMaDCTCfkxE9gBHuIQ/o.jpg", "is_closed": false, "url": "https://www.yelp.com/biz/tonkatsu-ginza-bairin-honolulu?adjust_creative=TpLShpR2csZ2AtLGvsRWXw&utm_campaign=yelp_api_v3&utm_medium=api_v3_business_search&utm_source=TpLShpR2csZ2AtLGvsRWXw", "review_count": 1376, "categories": [{"alias": "japanese", "title": "Japanese"}], "rating": 4.5, "coordinates": {"latitude": 21.2800471529532, "longitude": -157.830973863602}, "transactions": [], "price": "$$", "location": {"address1": "Outrigger Regency Beachwalk", "address2": "", "address3": "255 Beach Walk", "city": "Honolulu", "zip_code": "96815", "country": "US", "state": "HI", "display_address": ["Outrigger Regency Beachwalk", "255 Beach Walk", "Honolulu, HI 96815"]}, "phone": "+18089268082", "display_phone": "(808) 926-8082", "distance": 3892.17658913026}, {"id": "e92Yu5L9D6n_kt-nHWMsJg", "alias": "nicos-pier-38-honolulu-2", "name": "Nico's Pier 38", "image_url": "https://s3-media3.fl.yelpcdn.com/bphoto/yQAHjxRy8BZ_50R_SbH7Bg/o.jpg", "is_closed": false, "url": "https://www.yelp.com/biz/nicos-pier-38-honolulu-2?adjust_creative=TpLShpR2csZ2AtLGvsRWXw&utm_campaign=yelp_api_v3&utm_medium=api_v3_business_search&utm_source=TpLShpR2csZ2AtLGvsRWXw", "review_count": 2790, "categories": [{"alias": "seafood", "title": "Seafood"}, {"alias": "french", "title": "French"}, {"alias": "tradamerican", "title": "American (Traditional)"}], "rating": 4.0, "coordinates": {"latitude": 21.3175341939466, "longitude": -157.877566851676}, "transactions": [], "price": "$$", "location": {"address1": "1131 N Nimitz Hwy", "address2": "", "address3": "", "city": "Honolulu", "zip_code": "96817", "country": "US", "state": "HI", "display_address": ["1131 N Nimitz Hwy", "Honolulu, HI 96817"]}, "phone": "+18085401377", "display_phone": "(808) 540-1377", "distance": 3382.9385886545815}, {"id": "lVX6qFvm5xU0iH8vhiSz3g", "alias": "sushi-izakaya-gaku-honolulu-2", "name": "Sushi Izakaya Gaku", "image_url": "https://s3-media4.fl.yelpcdn.com/bphoto/n9nWF3NvIbIK_SPypduiTQ/o.jpg", "is_closed": false, "url": "https://www.yelp.com/biz/sushi-izakaya-gaku-honolulu-2?adjust_creative=TpLShpR2csZ2AtLGvsRWXw&utm_campaign=yelp_api_v3&utm_medium=api_v3_business_search&utm_source=TpLShpR2csZ2AtLGvsRWXw", "review_count": 756, "categories": [{"alias": "sushi", "title": "Sushi Bars"}, {"alias": "izakaya", "title": "Izakaya"}], "rating": 4.5, "coordinates": {"latitude": 21.29858, "longitude": -157.84135}, "transactions": [], "price": "$$$", "location": {"address1": "1329 S King St", "address2": "", "address3": "", "city": "Honolulu", "zip_code": "96814", "country": "US", "state": "HI", "display_address": ["1329 S King St", "Honolulu, HI 96814"]}, "phone": "+18085891329", "display_phone": "(808) 589-1329", "distance": 1582.703006045134}, {"id": "HIO_Bwp0uL8J0t-nFAV1Mg", "alias": "home-bar-and-grill-honolulu", "name": "Home Bar & Grill", "image_url": "https://s3-media1.fl.yelpcdn.com/bphoto/5rYUbRQFDcwVYC_DqdkHvw/o.jpg", "is_closed": false, "url": "https://www.yelp.com/biz/home-bar-and-grill-honolulu?adjust_creative=TpLShpR2csZ2AtLGvsRWXw&utm_campaign=yelp_api_v3&utm_medium=api_v3_business_search&utm_source=TpLShpR2csZ2AtLGvsRWXw", "review_count": 1079, "categories": [{"alias": "tradamerican", "title": "American (Traditional)"}, {"alias": "burgers", "title": "Burgers"}, {"alias": "sportsbars", "title": "Sports Bars"}], "rating": 4.5, "coordinates": {"latitude": 21.29212, "longitude": -157.83694}, "transactions": [], "price": "$$", "location": {"address1": "1683 Kalakaua Ave", "address2": "", "address3": "", "city": "Honolulu", "zip_code": "96826", "country": "US", "state": "HI", "display_address": ["1683 Kalakaua Ave", "Honolulu, HI 96826"]}, "phone": "+18089422235", "display_phone": "(808) 942-2235", "distance": 2415.507111997733}, {"id": "0syWUHwfAz1jfuNY6KymPQ", "alias": "hula-grill-waikiki-honolulu-3", "name": "Hula Grill Waikiki", "image_url": "https://s3-media3.fl.yelpcdn.com/bphoto/fcs7Ea8PJQkD1pOSCl-jXw/o.jpg", "is_closed": false, "url": "https://www.yelp.com/biz/hula-grill-waikiki-honolulu-3?adjust_creative=TpLShpR2csZ2AtLGvsRWXw&utm_campaign=yelp_api_v3&utm_medium=api_v3_business_search&utm_source=TpLShpR2csZ2AtLGvsRWXw", "review_count": 2011, "categories": [{"alias": "hawaiian", "title": "Hawaiian"}, {"alias": "seafood", "title": "Seafood"}, {"alias": "breakfast_brunch", "title": "Breakfast & Brunch"}], "rating": 4.0, "coordinates": {"latitude": 21.2769126476298, "longitude": -157.827881611884}, "transactions": [], "price": "$$", "location": {"address1": "2335 Kalakaua Ave", "address2": "Ste 203", "address3": "", "city": "Honolulu", "zip_code": "96815", "country": "US", "state": "HI", "display_address": ["2335 Kalakaua Ave", "Ste 203", "Honolulu, HI 96815"]}, "phone": "+18089234852", "display_phone": "(808) 923-4852", "distance": 4339.9730255318755}, {"id": "np1X_huOAm9xp2QP_5C_xg", "alias": "goofy-cafe-and-dine-honolulu", "name": "Goofy Cafe & Dine", "image_url": "https://s3-media4.fl.yelpcdn.com/bphoto/TZjCuFThkKYlVAl7LTL_Ww/o.jpg", "is_closed": false, "url": "https://www.yelp.com/biz/goofy-cafe-and-dine-honolulu?adjust_creative=TpLShpR2csZ2AtLGvsRWXw&utm_campaign=yelp_api_v3&utm_medium=api_v3_business_search&utm_source=TpLShpR2csZ2AtLGvsRWXw", "review_count": 2047, "categories": [{"alias": "cafes", "title": "Cafes"}, {"alias": "breakfast_brunch", "title": "Breakfast & Brunch"}, {"alias": "diners", "title": "Diners"}], "rating": 4.0, "coordinates": {"latitude": 21.2842431553515, "longitude": -157.836902216077}, "transactions": [], "price": "$$", "location": {"address1": "1831 Ala Moana Blvd", "address2": "Ste 201", "address3": "", "city": "Honolulu", "zip_code": "96815", "country": "US", "state": "HI", "display_address": ["1831 Ala Moana Blvd", "Ste 201", "Honolulu, HI 96815"]}, "phone": "+18089430077", "display_phone": "(808) 943-0077", "distance": 3249.0015117342946}, {"id": "Jex4ITxMGOLpow2nea_VgA", "alias": "the-pig-and-the-lady-honolulu-4", "name": "The Pig & The Lady", "image_url": "https://s3-media3.fl.yelpcdn.com/bphoto/OEczUB3dXXZnQYECcwHz3A/o.jpg", "is_closed": false, "url": "https://www.yelp.com/biz/the-pig-and-the-lady-honolulu-4?adjust_creative=TpLShpR2csZ2AtLGvsRWXw&utm_campaign=yelp_api_v3&utm_medium=api_v3_business_search&utm_source=TpLShpR2csZ2AtLGvsRWXw", "review_count": 1634, "categories": [{"alias": "vietnamese", "title": "Vietnamese"}, {"alias": "asianfusion", "title": "Asian Fusion"}, {"alias": "noodles", "title": "Noodles"}], "rating": 4.0, "coordinates": {"latitude": 21.311483, "longitude": -157.863587}, "transactions": [], "price": "$$", "location": {"address1": "83 N King St", "address2": "", "address3": "", "city": "Honolulu", "zip_code": "96817", "country": "US", "state": "HI", "display_address": ["83 N King St", "Honolulu, HI 96817"]}, "phone": "+18085858255", "display_phone": "(808) 585-8255", "distance": 1888.397436407516}, {"id": "y0zDGPVlXSzrpwToQrBiug", "alias": "sushi-sasabune-honolulu", "name": "Sushi Sasabune", "image_url": "https://s3-media2.fl.yelpcdn.com/bphoto/7nCgDxLDGGWZrl3zZBG7Og/o.jpg", "is_closed": false, "url": "https://www.yelp.com/biz/sushi-sasabune-honolulu?adjust_creative=TpLShpR2csZ2AtLGvsRWXw&utm_campaign=yelp_api_v3&utm_medium=api_v3_business_search&utm_source=TpLShpR2csZ2AtLGvsRWXw", "review_count": 887, "categories": [{"alias": "sushi", "title": "Sushi Bars"}, {"alias": "seafood", "title": "Seafood"}], "rating": 4.5, "coordinates": {"latitude": 21.29802, "longitude": -157.8398}, "transactions": [], "price": "$$$$", "location": {"address1": "1417 S King St", "address2": null, "address3": "", "city": "Honolulu", "zip_code": "96814", "country": "US", "state": "HI", "display_address": ["1417 S King St", "Honolulu, HI 96814"]}, "phone": "+18089473800", "display_phone": "(808) 947-3800", "distance": 1690.638824597993}, {"id": "UdvXV2ux3uOj3UqP04cjqA", "alias": "island-vintage-coffee-honolulu-4", "name": "Island Vintage Coffee", "image_url": "https://s3-media2.fl.yelpcdn.com/bphoto/toHATubRMNIYsL_2RDwTgg/o.jpg", "is_closed": false, "url": "https://www.yelp.com/biz/island-vintage-coffee-honolulu-4?adjust_creative=TpLShpR2csZ2AtLGvsRWXw&utm_campaign=yelp_api_v3&utm_medium=api_v3_business_search&utm_source=TpLShpR2csZ2AtLGvsRWXw", "review_count": 1177, "categories": [{"alias": "coffee", "title": "Coffee & Tea"}], "rating": 4.5, "coordinates": {"latitude": 21.2783176, "longitude": -157.8282487}, "transactions": [], "price": "$$", "location": {"address1": "2301 Kalakaua Ave", "address2": "Ste C215", "address3": "", "city": "Honolulu", "zip_code": "96815", "country": "US", "state": "HI", "display_address": ["2301 Kalakaua Ave", "Ste C215", "Honolulu, HI 96815"]}, "phone": "+18089265662", "display_phone": "(808) 926-5662", "distance": 4182.2570229035055}]]}