{"total": 3364, "businesses": [[{"id": "q18MyhsVqVPr-1Luz01vdw", "alias": "cheevers-cafe-oklahoma-city-14", "name": "Cheever's Cafe", "image_url": "https://s3-media3.fl.yelpcdn.com/bphoto/Hfv7AktoH5WzmEMrLCIqOg/o.jpg", "is_closed": false, "url": "https://www.yelp.com/biz/cheevers-cafe-oklahoma-city-14?adjust_creative=TpLShpR2csZ2AtLGvsRWXw&utm_campaign=yelp_api_v3&utm_medium=api_v3_business_search&utm_source=TpLShpR2csZ2AtLGvsRWXw", "review_count": 613, "categories": [{"alias": "newamerican", "title": "American (New)"}], "rating": 4.5, "coordinates": {"latitude": 35.4937, "longitude": -97.51924}, "transactions": [], "price": "$$", "location": {"address1": "2409 N Hudson Ave", "address2": "", "address3": "", "city": "Oklahoma City", "zip_code": "73103", "country": "US", "state": "OK", "display_address": ["2409 N Hudson Ave", "Oklahoma City, OK 73103"]}, "phone": "+14055257007", "display_phone": "(405) 525-7007", "distance": 1857.9452415394455}, {"id": "LypmdJ6FEWP6Cnp_T3l5Ng", "alias": "kitchen-no-324-oklahoma-city", "name": "Kitchen No 324", "image_url": "https://s3-media4.fl.yelpcdn.com/bphoto/rUw2ybZZj2z84iM2qwaz1A/o.jpg", "is_closed": false, "url": "https://www.yelp.com/biz/kitchen-no-324-oklahoma-city?adjust_creative=TpLShpR2csZ2AtLGvsRWXw&utm_campaign=yelp_api_v3&utm_medium=api_v3_business_search&utm_source=TpLShpR2csZ2AtLGvsRWXw", "review_count": 826, "categories": [{"alias": "newamerican", "title": "American (New)"}, {"alias": "breakfast_brunch", "title": "Breakfast & Brunch"}], "rating": 4.5, "coordinates": {"latitude": 35.470677655602, "longitude": -97.5161738030228}, "transactions": [], "price": "$$", "location": {"address1": "324 N Robinson Ave", "address2": "", "address3": "", "city": "Oklahoma City", "zip_code": "73102", "country": "US", "state": "OK", "display_address": ["324 N Robinson Ave", "Oklahoma City, OK 73102"]}, "phone": "+14057635911", "display_phone": "(405) 763-5911", "distance": 3059.8443158576806}, {"id": "3zSj9QPPs1uL1PTgFkruiw", "alias": "cafe-kacao-oklahoma-city", "name": "Cafe Kacao", "image_url": "https://s3-media2.fl.yelpcdn.com/bphoto/5WAnwjvYe0CZW86LPqSDAw/o.jpg", "is_closed": false, "url": "https://www.yelp.com/biz/cafe-kacao-oklahoma-city?adjust_creative=TpLShpR2csZ2AtLGvsRWXw&utm_campaign=yelp_api_v3&utm_medium=api_v3_business_search&utm_source=TpLShpR2csZ2AtLGvsRWXw", "review_count": 558, "categories": [{"alias": "breakfast_brunch", "title": "Breakfast & Brunch"}, {"alias": "latin", "title": "Latin American"}], "rating": 4.5, "coordinates": {"latitude": 35.5039299, "longitude": -97.5348099}, "transactions": [], "price": "$$", "location": {"address1": "3325 N Classen Blvd", "address2": "", "address3": "", "city": "Oklahoma City", "zip_code": "73118", "country": "US", "state": "OK", "display_address": ["3325 N Classen Blvd", "Oklahoma City, OK 73118"]}, "phone": "+14056022883", "display_phone": "(405) 602-2883", "distance": 1524.4220410076334}, {"id": "6nwG5406AsgPVmcBdjfhvQ", "alias": "empire-slice-house-oklahoma-city", "name": "Empire Slice House", "image_url": "https://s3-media2.fl.yelpcdn.com/bphoto/OC9_3CWX72EcptY6fSpw-A/o.jpg", "is_closed": false, "url": "https://www.yelp.com/biz/empire-slice-house-oklahoma-city?adjust_creative=TpLShpR2csZ2AtLGvsRWXw&utm_campaign=yelp_api_v3&utm_medium=api_v3_business_search&utm_source=TpLShpR2csZ2AtLGvsRWXw", "review_count": 659, "categories": [{"alias": "pizza", "title": "Pizza"}, {"alias": "bars", "title": "Bars"}], "rating": 4.5, "coordinates": {"latitude": 35.4858228620952, "longitude": -97.5405187440168}, "transactions": [], "price": "$", "location": {"address1": "1734 NW 16th St", "address2": null, "address3": "", "city": "Oklahoma City", "zip_code": "73106", "country": "US", "state": "OK", "display_address": ["1734 NW 16th St", "Oklahoma City, OK 73106"]}, "phone": "+14055571760", "display_phone": "(405) 557-1760", "distance": 551.1961721633746}, {"id": "hDfty5uyhm5VFHB32arjmw", "alias": "oklahoma-city-national-memorial-oklahoma-city", "name": "Oklahoma City National Memorial & Museum", "image_url": "https://s3-media2.fl.yelpcdn.com/bphoto/FGw3okfBSrLCMCLxptQ7Sg/o.jpg", "is_closed": false, "url": "https://www.yelp.com/biz/oklahoma-city-national-memorial-oklahoma-city?adjust_creative=TpLShpR2csZ2AtLGvsRWXw&utm_campaign=yelp_api_v3&utm_medium=api_v3_business_search&utm_source=TpLShpR2csZ2AtLGvsRWXw", "review_count": 234, "categories": [{"alias": "museums", "title": "Museums"}, {"alias": "landmarks", "title": "Landmarks & Historical Buildings"}], "rating": 5.0, "coordinates": {"latitude": 35.4736630319091, "longitude": -97.517340834671}, "transactions": [], "location": {"address1": "620 N Harvey Ave", "address2": "", "address3": "", "city": "Oklahoma City", "zip_code": "73102", "country": "US", "state": "OK", "display_address": ["620 N Harvey Ave", "Oklahoma City, OK 73102"]}, "phone": "+14052353313", "display_phone": "(405) 235-3313", "distance": 2750.015289959608}, {"id": "GD0LghhPqkpp-Y6MTNGx3g", "alias": "whiskey-cake-oklahoma-city-2", "name": "Whiskey Cake", "image_url": "https://s3-media2.fl.yelpcdn.com/bphoto/D-SKSQVVf2Ucat4zwdKTRg/o.jpg", "is_closed": false, "url": "https://www.yelp.com/biz/whiskey-cake-oklahoma-city-2?adjust_creative=TpLShpR2csZ2AtLGvsRWXw&utm_campaign=yelp_api_v3&utm_medium=api_v3_business_search&utm_source=TpLShpR2csZ2AtLGvsRWXw", "review_count": 791, "categories": [{"alias": "newamerican", "title": "American (New)"}, {"alias": "breakfast_brunch", "title": "Breakfast & Brunch"}, {"alias": "bars", "title": "Bars"}], "rating": 4.0, "coordinates": {"latitude": 35.522894769058, "longitude": -97.5432871243113}, "transactions": [], "price": "$$", "location": {"address1": "1845 Northwest Expy", "address2": "", "address3": "", "city": "Oklahoma City", "zip_code": "73118", "country": "US", "state": "OK", "display_address": ["1845 Northwest Expy", "Oklahoma City, OK 73118"]}, "phone": "+14055822253", "display_phone": "(405) 582-2253", "distance": 3598.480949201341}, {"id": "95VJFaTk-WxaQR8PS8JJIw", "alias": "the-mule-oklahoma-city", "name": "The Mule", "image_url": "https://s3-media2.fl.yelpcdn.com/bphoto/m6XRXBaFusAkjNVIWW8xAQ/o.jpg", "is_closed": false, "url": "https://www.yelp.com/biz/the-mule-oklahoma-city?adjust_creative=TpLShpR2csZ2AtLGvsRWXw&utm_campaign=yelp_api_v3&utm_medium=api_v3_business_search&utm_source=TpLShpR2csZ2AtLGvsRWXw", "review_count": 530, "categories": [{"alias": "bars", "title": "Bars"}, {"alias": "sandwiches", "title": "Sandwiches"}, {"alias": "newamerican", "title": "American (New)"}], "rating": 4.5, "coordinates": {"latitude": 35.4859482339289, "longitude": -97.5387315285266}, "transactions": [], "price": "$$", "location": {"address1": "1630 N Blackwelder Ave", "address2": "Ste 1", "address3": "", "city": "Oklahoma City", "zip_code": "73106", "country": "US", "state": "OK", "display_address": ["1630 N Blackwelder Ave", "Ste 1", "Oklahoma City, OK 73106"]}, "phone": "+14056011400", "display_phone": "(405) 601-1400", "distance": 530.4497292711293}, {"id": "BRv5b6DmzuaLKA-2F32iKA", "alias": "nics-grill-oklahoma-city", "name": "Nic's Grill", "image_url": "https://s3-media2.fl.yelpcdn.com/bphoto/CxWyxFYEUabdWrt7VUvVpg/o.jpg", "is_closed": false, "url": "https://www.yelp.com/biz/nics-grill-oklahoma-city?adjust_creative=TpLShpR2csZ2AtLGvsRWXw&utm_campaign=yelp_api_v3&utm_medium=api_v3_business_search&utm_source=TpLShpR2csZ2AtLGvsRWXw", "review_count": 304, "categories": [{"alias": "burgers", "title": "Burgers"}, {"alias": "tradamerican", "title": "American (Traditional)"}], "rating": 4.5, "coordinates": {"latitude": 35.480937, "longitude": -97.548094}, "transactions": [], "price": "$", "location": {"address1": "1201 N Pennsylvania Ave", "address2": "", "address3": "", "city": "Oklahoma City", "zip_code": "73107", "country": "US", "state": "OK", "display_address": ["1201 N Pennsylvania Ave", "Oklahoma City, OK 73107"]}, "phone": "+14055240999", "display_phone": "(405) 524-0999", "distance": 1341.8151560499928}, {"id": "UkcVLyNrOq-J0luhN0fNfg", "alias": "waffle-champion-oklahoma-city-2", "name": "Waffle Champion", "image_url": "https://s3-media1.fl.yelpcdn.com/bphoto/2RKp9n8G4kFYX2EFpd7suQ/o.jpg", "is_closed": false, "url": "https://www.yelp.com/biz/waffle-champion-oklahoma-city-2?adjust_creative=TpLShpR2csZ2AtLGvsRWXw&utm_campaign=yelp_api_v3&utm_medium=api_v3_business_search&utm_source=TpLShpR2csZ2AtLGvsRWXw", "review_count": 447, "categories": [{"alias": "waffles", "title": "Waffles"}], "rating": 4.0, "coordinates": {"latitude": 35.4805885206791, "longitude": -97.5209635745563}, "transactions": [], "price": "$$", "location": {"address1": "1212 N Walker Ave", "address2": "Ste 100", "address3": "", "city": "Oklahoma City", "zip_code": "73103", "country": "US", "state": "OK", "display_address": ["1212 N Walker Ave", "Ste 100", "Oklahoma City, OK 73103"]}, "phone": "+14055259235", "display_phone": "(405) 525-9235", "distance": 2009.5892841951177}, {"id": "6Z05wqlXZhzJtoN_WoA41Q", "alias": "tamashii-ramen-oklahoma-city", "name": "Tamashii Ramen", "image_url": "https://s3-media1.fl.yelpcdn.com/bphoto/bbqz_dg68sDb1Wb6WJkaTg/o.jpg", "is_closed": false, "url": "https://www.yelp.com/biz/tamashii-ramen-oklahoma-city?adjust_creative=TpLShpR2csZ2AtLGvsRWXw&utm_campaign=yelp_api_v3&utm_medium=api_v3_business_search&utm_source=TpLShpR2csZ2AtLGvsRWXw", "review_count": 383, "categories": [{"alias": "ramen", "title": "Ramen"}, {"alias": "izakaya", "title": "Izakaya"}, {"alias": "tapas", "title": "Tapas Bars"}], "rating": 4.5, "coordinates": {"latitude": 35.4763325789891, "longitude": -97.5187203455078}, "transactions": ["pickup"], "price": "$$", "location": {"address1": "321 NW 8th St", "address2": "Ste B", "address3": "", "city": "Oklahoma City", "zip_code": "73102", "country": "US", "state": "OK", "display_address": ["321 NW 8th St", "Ste B", "Oklahoma City, OK 73102"]}, "phone": "+14055170707", "display_phone": "(405) 517-0707", "distance": 2458.432353174782}, {"id": "6bKE7lZ3RmGLj1CpWvlREA", "alias": "gorō-ramen-oklahoma-city", "name": "Gorō Ramen", "image_url": "https://s3-media2.fl.yelpcdn.com/bphoto/rxeWo7Eyy_fI_OikrS4F1Q/o.jpg", "is_closed": false, "url": "https://www.yelp.com/biz/gor%C5%8D-ramen-oklahoma-city?adjust_creative=TpLShpR2csZ2AtLGvsRWXw&utm_campaign=yelp_api_v3&utm_medium=api_v3_business_search&utm_source=TpLShpR2csZ2AtLGvsRWXw", "review_count": 341, "categories": [{"alias": "ramen", "title": "Ramen"}, {"alias": "izakaya", "title": "Izakaya"}, {"alias": "cocktailbars", "title": "Cocktail Bars"}], "rating": 4.5, "coordinates": {"latitude": 35.4858376827959, "longitude": -97.538504259891}, "transactions": [], "price": "$$", "location": {"address1": "1634 N Blackwelder Ave", "address2": "Ste 102", "address3": "", "city": "Oklahoma City", "zip_code": "73106", "country": "US", "state": "OK", "display_address": ["1634 N Blackwelder Ave", "Ste 102", "Oklahoma City, OK 73106"]}, "phone": "+14056062539", "display_phone": "(405) 606-2539", "distance": 545.2393141625597}, {"id": "_R9rg90T_0kfdNtQWp-gWA", "alias": "pie-junkie-oklahoma-city-2", "name": "Pie Junkie", "image_url": "https://s3-media4.fl.yelpcdn.com/bphoto/VpGpQHgBTq-CF77shqOd9A/o.jpg", "is_closed": false, "url": "https://www.yelp.com/biz/pie-junkie-oklahoma-city-2?adjust_creative=TpLShpR2csZ2AtLGvsRWXw&utm_campaign=yelp_api_v3&utm_medium=api_v3_business_search&utm_source=TpLShpR2csZ2AtLGvsRWXw", "review_count": 217, "categories": [{"alias": "desserts", "title": "Desserts"}, {"alias": "bakeries", "title": "Bakeries"}, {"alias": "cafes", "title": "Cafes"}], "rating": 4.5, "coordinates": {"latitude": 35.4859962, "longitude": -97.5390149}, "transactions": [], "price": "$", "location": {"address1": "1711 NW 16th St", "address2": "", "address3": "", "city": "Oklahoma City", "zip_code": "73106", "country": "US", "state": "OK", "display_address": ["1711 NW 16th St", "Oklahoma City, OK 73106"]}, "phone": "+14056058767", "display_phone": "(405) 605-8767", "distance": 522.9563017029413}, {"id": "Et2qaUrHsse6VDEKuDxHEw", "alias": "all-about-cha-oklahoma-city-3", "name": "All About Cha", "image_url": "https://s3-media3.fl.yelpcdn.com/bphoto/3YXFH5s7Y5PKyGLq_44L0A/o.jpg", "is_closed": false, "url": "https://www.yelp.com/biz/all-about-cha-oklahoma-city-3?adjust_creative=TpLShpR2csZ2AtLGvsRWXw&utm_campaign=yelp_api_v3&utm_medium=api_v3_business_search&utm_source=TpLShpR2csZ2AtLGvsRWXw", "review_count": 289, "categories": [{"alias": "coffee", "title": "Coffee & Tea"}, {"alias": "korean", "title": "Korean"}, {"alias": "tradamerican", "title": "American (Traditional)"}], "rating": 4.5, "coordinates": {"latitude": 35.5457178005472, "longitude": -97.5293624172785}, "transactions": [], "price": "$", "location": {"address1": "7300 N Western Ave", "address2": "", "address3": "", "city": "Oklahoma City", "zip_code": "73116", "country": "US", "state": "OK", "display_address": ["7300 N Western Ave", "Oklahoma City, OK 73116"]}, "phone": "+14058407725", "display_phone": "(405) 840-7725", "distance": 6185.393790108997}, {"id": "NABeQsT851cdSUabki7bmQ", "alias": "cattlemens-steak-house-oklahoma-city", "name": "Cattlemen's Steak House", "image_url": "https://s3-media2.fl.yelpcdn.com/bphoto/gH62recG82c7M11-yRIOog/o.jpg", "is_closed": false, "url": "https://www.yelp.com/biz/cattlemens-steak-house-oklahoma-city?adjust_creative=TpLShpR2csZ2AtLGvsRWXw&utm_campaign=yelp_api_v3&utm_medium=api_v3_business_search&utm_source=TpLShpR2csZ2AtLGvsRWXw", "review_count": 787, "categories": [{"alias": "steak", "title": "Steakhouses"}], "rating": 4.0, "coordinates": {"latitude": 35.4520959370169, "longitude": -97.5547807375935}, "transactions": [], "price": "$$", "location": {"address1": "1309 S Agnew Ave", "address2": "", "address3": "", "city": "Oklahoma City", "zip_code": "73108", "country": "US", "state": "OK", "display_address": ["1309 S Agnew Ave", "Oklahoma City, OK 73108"]}, "phone": "+14052360416", "display_phone": "(405) 236-0416", "distance": 4512.788481955812}, {"id": "o5RNpq_WPUKQu8xPGO3WvQ", "alias": "sheesh-mahal-oklahoma-city", "name": "Sheesh Mahal", "image_url": "https://s3-media2.fl.yelpcdn.com/bphoto/ZQpNXWSEUuw_6_n0_97Qzg/o.jpg", "is_closed": false, "url": "https://www.yelp.com/biz/sheesh-mahal-oklahoma-city?adjust_creative=TpLShpR2csZ2AtLGvsRWXw&utm_campaign=yelp_api_v3&utm_medium=api_v3_business_search&utm_source=TpLShpR2csZ2AtLGvsRWXw", "review_count": 307, "categories": [{"alias": "indpak", "title": "Indian"}, {"alias": "pakistani", "title": "Pakistani"}], "rating": 4.5, "coordinates": {"latitude": 35.5178489685059, "longitude": -97.5661010742188}, "transactions": ["pickup"], "price": "$", "location": {"address1": "4621 N May Ave", "address2": "", "address3": "", "city": "Oklahoma City", "zip_code": "73112", "country": "US", "state": "OK", "display_address": ["4621 N May Ave", "Oklahoma City, OK 73112"]}, "phone": "+14057788469", "display_phone": "(405) 778-8469", "distance": 3878.4323269723845}, {"id": "sKFnMmpWp1pJH0Sz1G4VOQ", "alias": "picasso-cafe-oklahoma-city", "name": "Picasso Cafe", "image_url": "https://s3-media4.fl.yelpcdn.com/bphoto/ItR2ncqYQH7eXdUX1BOCsg/o.jpg", "is_closed": false, "url": "https://www.yelp.com/biz/picasso-cafe-oklahoma-city?adjust_creative=TpLShpR2csZ2AtLGvsRWXw&utm_campaign=yelp_api_v3&utm_medium=api_v3_business_search&utm_source=TpLShpR2csZ2AtLGvsRWXw", "review_count": 351, "categories": [{"alias": "newamerican", "title": "American (New)"}, {"alias": "vegetarian", "title": "Vegetarian"}, {"alias": "vegan", "title": "Vegan"}], "rating": 4.0, "coordinates": {"latitude": 35.4999366, "longitude": -97.5233089}, "transactions": [], "price": "$$", "location": {"address1": "3009 Paseo St", "address2": "", "address3": "", "city": "Oklahoma City", "zip_code": "73103", "country": "US", "state": "OK", "display_address": ["3009 Paseo St", "Oklahoma City, OK 73103"]}, "phone": "+14056022002", "display_phone": "(405) 602-2002", "distance": 1780.6180165364344}, {"id": "Bvig-HbRMvrx-ibZGOjyVw", "alias": "hatch-early-mood-food-oklahoma-city", "name": "Hatch Early Mood Food", "image_url": "https://s3-media2.fl.yelpcdn.com/bphoto/0pedGiGl2xgNJjEI2MV7pA/o.jpg", "is_closed": false, "url": "https://www.yelp.com/biz/hatch-early-mood-food-oklahoma-city?adjust_creative=TpLShpR2csZ2AtLGvsRWXw&utm_campaign=yelp_api_v3&utm_medium=api_v3_business_search&utm_source=TpLShpR2csZ2AtLGvsRWXw", "review_count": 438, "categories": [{"alias": "breakfast_brunch", "title": "Breakfast & Brunch"}], "rating": 4.0, "coordinates": {"latitude": 35.47853, "longitude": -97.51445}, "transactions": [], "price": "$$", "location": {"address1": "1101 N Broadway Ave", "address2": "Ste 100", "address3": "", "city": "Oklahoma City", "zip_code": "73103", "country": "US", "state": "OK", "display_address": ["1101 N Broadway Ave", "Ste 100", "Oklahoma City, OK 73103"]}, "phone": "+14056098936", "display_phone": "(405) 609-8936", "distance": 2636.9316585625843}, {"id": "162AATsGJlqqkfIm6hvYmg", "alias": "pho-lien-hoa-oklahoma-city", "name": "Pho Lien Hoa", "image_url": "https://s3-media2.fl.yelpcdn.com/bphoto/WxYjCL_LU3PNEnQ7IOQI3g/o.jpg", "is_closed": false, "url": "https://www.yelp.com/biz/pho-lien-hoa-oklahoma-city?adjust_creative=TpLShpR2csZ2AtLGvsRWXw&utm_campaign=yelp_api_v3&utm_medium=api_v3_business_search&utm_source=TpLShpR2csZ2AtLGvsRWXw", "review_count": 297, "categories": [{"alias": "vietnamese", "title": "Vietnamese"}], "rating": 4.0, "coordinates": {"latitude": 35.4935273559254, "longitude": -97.527479454875}, "transactions": [], "price": "$", "location": {"address1": "901 NW 23rd St", "address2": "", "address3": "", "city": "Oklahoma City", "zip_code": "73106", "country": "US", "state": "OK", "display_address": ["901 NW 23rd St", "Oklahoma City, OK 73106"]}, "phone": "+14055218087", "display_phone": "(405) 521-8087", "distance": 1121.5658331610052}, {"id": "eAB2lvhSqiqznkXTa5r8Xg", "alias": "republic-gastropub-oklahoma-city", "name": "Republic Gastropub", "image_url": "https://s3-media4.fl.yelpcdn.com/bphoto/zFk8LMPNuZvPxJ_gbc_4wg/o.jpg", "is_closed": false, "url": "https://www.yelp.com/biz/republic-gastropub-oklahoma-city?adjust_creative=TpLShpR2csZ2AtLGvsRWXw&utm_campaign=yelp_api_v3&utm_medium=api_v3_business_search&utm_source=TpLShpR2csZ2AtLGvsRWXw", "review_count": 354, "categories": [{"alias": "gastropubs", "title": "Gastropubs"}, {"alias": "pubs", "title": "Pubs"}, {"alias": "sportsbars", "title": "Sports Bars"}], "rating": 4.0, "coordinates": {"latitude": 35.53237, "longitude": -97.534012}, "transactions": [], "price": "$$", "location": {"address1": "5830 N Classen Blvd", "address2": "", "address3": "", "city": "Oklahoma City", "zip_code": "73118", "country": "US", "state": "OK", "display_address": ["5830 N Classen Blvd", "Oklahoma City, OK 73118"]}, "phone": "+14052864577", "display_phone": "(405) 286-4577", "distance": 4659.828322571627}, {"id": "1ktoT276_iY0fNAYchbHAw", "alias": "the-garage-burgers-and-beer-oklahoma-city-4", "name": "The Garage Burgers and Beer", "image_url": "https://s3-media4.fl.yelpcdn.com/bphoto/XnYnLI-yO7n9LIbnAOEsxA/o.jpg", "is_closed": false, "url": "https://www.yelp.com/biz/the-garage-burgers-and-beer-oklahoma-city-4?adjust_creative=TpLShpR2csZ2AtLGvsRWXw&utm_campaign=yelp_api_v3&utm_medium=api_v3_business_search&utm_source=TpLShpR2csZ2AtLGvsRWXw", "review_count": 262, "categories": [{"alias": "burgers", "title": "Burgers"}, {"alias": "sportsbars", "title": "Sports Bars"}, {"alias": "tradamerican", "title": "American (Traditional)"}], "rating": 4.5, "coordinates": {"latitude": 35.4789202520057, "longitude": -97.5164930233319}, "transactions": [], "price": "$", "location": {"address1": "1117 N Robinson", "address2": "", "address3": "", "city": "Oklahoma City", "zip_code": "73103", "country": "US", "state": "OK", "display_address": ["1117 N Robinson", "Oklahoma City, OK 73103"]}, "phone": "+14056026880", "display_phone": "(405) 602-6880", "distance": 2450.0006548045076}], [{"id": "jFBPuK0LwDdDYSOVP6EBGw", "alias": "andolinis-pizzeria-tulsa", "name": "Andolini's Pizzeria", "image_url": "https://s3-media4.fl.yelpcdn.com/bphoto/cS3NY6GV1Pvm3HZ8v1PQWA/o.jpg", "is_closed": false, "url": "https://www.yelp.com/biz/andolinis-pizzeria-tulsa?adjust_creative=TpLShpR2csZ2AtLGvsRWXw&utm_campaign=yelp_api_v3&utm_medium=api_v3_business_search&utm_source=TpLShpR2csZ2AtLGvsRWXw", "review_count": 526, "categories": [{"alias": "pizza", "title": "Pizza"}, {"alias": "bars", "title": "Bars"}, {"alias": "italian", "title": "Italian"}], "rating": 4.5, "coordinates": {"latitude": 36.14027, "longitude": -95.96984}, "transactions": [], "price": "$$", "location": {"address1": "1552 E 15th St", "address2": "", "address3": "", "city": "Tulsa", "zip_code": "74120", "country": "US", "state": "OK", "display_address": ["1552 E 15th St", "Tulsa, OK 74120"]}, "phone": "+19187286111", "display_phone": "(918) 728-6111", "distance": 5715.076526211094}, {"id": "t2sYCZSrP2qht6KAwHJxCA", "alias": "kilkennys-irish-pub-tulsa", "name": "Kilkenny's Irish Pub", "image_url": "https://s3-media2.fl.yelpcdn.com/bphoto/0c1Mx3RX2BoCbTi4G4YVww/o.jpg", "is_closed": false, "url": "https://www.yelp.com/biz/kilkennys-irish-pub-tulsa?adjust_creative=TpLShpR2csZ2AtLGvsRWXw&utm_campaign=yelp_api_v3&utm_medium=api_v3_business_search&utm_source=TpLShpR2csZ2AtLGvsRWXw", "review_count": 476, "categories": [{"alias": "pubs", "title": "Pubs"}, {"alias": "irish", "title": "Irish"}, {"alias": "breakfast_brunch", "title": "Breakfast & Brunch"}], "rating": 4.5, "coordinates": {"latitude": 36.1406522244215, "longitude": -95.9729200601578}, "transactions": [], "price": "$$", "location": {"address1": "1413 E 15th St", "address2": "", "address3": "", "city": "Tulsa", "zip_code": "74120", "country": "US", "state": "OK", "display_address": ["1413 E 15th St", "Tulsa, OK 74120"]}, "phone": "+19185828282", "display_phone": "(918) 582-8282", "distance": 5932.395526471932}, {"id": "0lgEDly0jyZ9uUnVk28BNA", "alias": "chimera-tulsa", "name": "Chimera", "image_url": "https://s3-media3.fl.yelpcdn.com/bphoto/pOFObp3yk_XEtcU17jU-jQ/o.jpg", "is_closed": false, "url": "https://www.yelp.com/biz/chimera-tulsa?adjust_creative=TpLShpR2csZ2AtLGvsRWXw&utm_campaign=yelp_api_v3&utm_medium=api_v3_business_search&utm_source=TpLShpR2csZ2AtLGvsRWXw", "review_count": 400, "categories": [{"alias": "coffee", "title": "Coffee & Tea"}, {"alias": "breakfast_brunch", "title": "Breakfast & Brunch"}, {"alias": "cocktailbars", "title": "Cocktail Bars"}], "rating": 4.5, "coordinates": {"latitude": 36.15882, "longitude": -95.99422}, "transactions": [], "price": "$$", "location": {"address1": "212 N Main St", "address2": "", "address3": "", "city": "Tulsa", "zip_code": "74103", "country": "US", "state": "OK", "display_address": ["212 N Main St", "Tulsa, OK 74103"]}, "phone": "+19187794303", "display_phone": "(918) 779-4303", "distance": 8689.879512389263}, {"id": "53RkNUMposf6Sp7FbPC_Uw", "alias": "sisserous-tulsa", "name": "Sisserou's", "image_url": "https://s3-media2.fl.yelpcdn.com/bphoto/uUx4RMT74acXWCi308pbxg/o.jpg", "is_closed": false, "url": "https://www.yelp.com/biz/sisserous-tulsa?adjust_creative=TpLShpR2csZ2AtLGvsRWXw&utm_campaign=yelp_api_v3&utm_medium=api_v3_business_search&utm_source=TpLShpR2csZ2AtLGvsRWXw", "review_count": 232, "categories": [{"alias": "caribbean", "title": "Caribbean"}], "rating": 4.5, "coordinates": {"latitude": 36.1574668884277, "longitude": -95.9940643310547}, "transactions": [], "price": "$$", "location": {"address1": "107 N Boulder Ave", "address2": "Unit C", "address3": "", "city": "Tulsa", "zip_code": "74103", "country": "US", "state": "OK", "display_address": ["107 N Boulder Ave", "Unit C", "Tulsa, OK 74103"]}, "phone": "+19185766800", "display_phone": "(918) 576-6800", "distance": 8597.021319729747}, {"id": "2b1fa9dkVjKCMZSoUYP9xA", "alias": "lone-wolf-banh-mi-tulsa", "name": "Lone Wolf Banh Mi", "image_url": "https://s3-media2.fl.yelpcdn.com/bphoto/ACvi33A1G7zZBGdsP_LTxw/o.jpg", "is_closed": false, "url": "https://www.yelp.com/biz/lone-wolf-banh-mi-tulsa?adjust_creative=TpLShpR2csZ2AtLGvsRWXw&utm_campaign=yelp_api_v3&utm_medium=api_v3_business_search&utm_source=TpLShpR2csZ2AtLGvsRWXw", "review_count": 163, "categories": [{"alias": "vietnamese", "title": "Vietnamese"}, {"alias": "foodtrucks", "title": "Food Trucks"}], "rating": 4.5, "coordinates": {"latitude": 36.1476447143507, "longitude": -95.9434424324196}, "transactions": [], "price": "$", "location": {"address1": "3136 E 11th St", "address2": null, "address3": "", "city": "Tulsa", "zip_code": "74104", "country": "US", "state": "OK", "display_address": ["3136 E 11th St", "Tulsa, OK 74104"]}, "phone": "+19188614232", "display_phone": "(918) 861-4232", "distance": 5261.458629878407}, {"id": "UJjy-fIzMx7W6FrOpDVaBA", "alias": "tavern-tulsa", "name": "Tavern", "image_url": "https://s3-media3.fl.yelpcdn.com/bphoto/TR3o1NrtUmbY2GxH1wEGyg/o.jpg", "is_closed": false, "url": "https://www.yelp.com/biz/tavern-tulsa?adjust_creative=TpLShpR2csZ2AtLGvsRWXw&utm_campaign=yelp_api_v3&utm_medium=api_v3_business_search&utm_source=TpLShpR2csZ2AtLGvsRWXw", "review_count": 311, "categories": [{"alias": "newamerican", "title": "American (New)"}, {"alias": "lounges", "title": "Lounges"}], "rating": 4.0, "coordinates": {"latitude": 36.15872, "longitude": -95.99334}, "transactions": [], "price": "$$", "location": {"address1": "201 N Main", "address2": "", "address3": "", "city": "Tulsa", "zip_code": "74102", "country": "US", "state": "OK", "display_address": ["201 N Main", "Tulsa, OK 74102"]}, "phone": "+19189499801", "display_phone": "(918) 949-9801", "distance": 8649.018356191726}, {"id": "JYSqEyUZdSrBWx3TffEZ5Q", "alias": "smoke-on-cherry-street-tulsa", "name": "Smoke on Cherry Street", "image_url": "https://s3-media1.fl.yelpcdn.com/bphoto/vCaPzxtF79ikl9m5BahjNA/o.jpg", "is_closed": false, "url": "https://www.yelp.com/biz/smoke-on-cherry-street-tulsa?adjust_creative=TpLShpR2csZ2AtLGvsRWXw&utm_campaign=yelp_api_v3&utm_medium=api_v3_business_search&utm_source=TpLShpR2csZ2AtLGvsRWXw", "review_count": 316, "categories": [{"alias": "newamerican", "title": "American (New)"}, {"alias": "bars", "title": "Bars"}, {"alias": "breakfast_brunch", "title": "Breakfast & Brunch"}], "rating": 4.0, "coordinates": {"latitude": 36.140357, "longitude": -95.970047}, "transactions": [], "price": "$$", "location": {"address1": "1542 E 15th St", "address2": "", "address3": "", "city": "Tulsa", "zip_code": "74120", "country": "US", "state": "OK", "display_address": ["1542 E 15th St", "Tulsa, OK 74120"]}, "phone": "+19189494440", "display_phone": "(918) 949-4440", "distance": 5734.922222494155}, {"id": "-_Dh39bjvhLAck29Gy0fYg", "alias": "burn-co-barbeque-tulsa", "name": "Burn Co Barbeque", "image_url": "https://s3-media2.fl.yelpcdn.com/bphoto/Fw9pqS-iw4d_8DeNAp2ndA/o.jpg", "is_closed": false, "url": "https://www.yelp.com/biz/burn-co-barbeque-tulsa?adjust_creative=TpLShpR2csZ2AtLGvsRWXw&utm_campaign=yelp_api_v3&utm_medium=api_v3_business_search&utm_source=TpLShpR2csZ2AtLGvsRWXw", "review_count": 248, "categories": [{"alias": "bbq", "title": "Barbeque"}], "rating": 4.5, "coordinates": {"latitude": 36.136518, "longitude": -95.985446}, "transactions": [], "price": "$$", "location": {"address1": "1738 S Boston Ave", "address2": "", "address3": "", "city": "Tulsa", "zip_code": "74119", "country": "US", "state": "OK", "display_address": ["1738 S Boston Ave", "Tulsa, OK 74119"]}, "phone": "+19185742777", "display_phone": "(918) 574-2777", "distance": 6481.093135771845}, {"id": "vbq84XqnqjA55JHGOhXxKQ", "alias": "villa-ravenna-tulsa", "name": "Villa Ravenna", "image_url": "https://s3-media1.fl.yelpcdn.com/bphoto/iAS9Uf9yDu-sR9Q5XQfyhg/o.jpg", "is_closed": false, "url": "https://www.yelp.com/biz/villa-ravenna-tulsa?adjust_creative=TpLShpR2csZ2AtLGvsRWXw&utm_campaign=yelp_api_v3&utm_medium=api_v3_business_search&utm_source=TpLShpR2csZ2AtLGvsRWXw", "review_count": 194, "categories": [{"alias": "italian", "title": "Italian"}, {"alias": "seafood", "title": "Seafood"}, {"alias": "steak", "title": "Steakhouses"}], "rating": 4.5, "coordinates": {"latitude": 36.0889114445537, "longitude": -95.9029690548778}, "transactions": [], "price": "$$$", "location": {"address1": "6526 E 51st St", "address2": null, "address3": "", "city": "Tulsa", "zip_code": "74145", "country": "US", "state": "OK", "display_address": ["6526 E 51st St", "Tulsa, OK 74145"]}, "phone": "+19182702666", "display_phone": "(918) 270-2666", "distance": 2625.5753801386218}, {"id": "KUEvQaD3NzVDSruOojBddA", "alias": "the-tropical-tulsa", "name": "The Tropical", "image_url": "https://s3-media2.fl.yelpcdn.com/bphoto/DSLM-0w3Pbcfwi10jXe2rg/o.jpg", "is_closed": false, "url": "https://www.yelp.com/biz/the-tropical-tulsa?adjust_creative=TpLShpR2csZ2AtLGvsRWXw&utm_campaign=yelp_api_v3&utm_medium=api_v3_business_search&utm_source=TpLShpR2csZ2AtLGvsRWXw", "review_count": 146, "categories": [{"alias": "vegan", "title": "Vegan"}, {"alias": "asianfusion", "title": "Asian Fusion"}, {"alias": "seafood", "title": "Seafood"}], "rating": 4.5, "coordinates": {"latitude": 36.0931396484375, "longitude": -95.8856048583984}, "transactions": [], "price": "$$", "location": {"address1": "8125 E 49th St", "address2": "", "address3": "", "city": "Tulsa", "zip_code": "74145", "country": "US", "state": "OK", "display_address": ["8125 E 49th St", "Tulsa, OK 74145"]}, "phone": "+19188956433", "display_phone": "(918) 895-6433", "distance": 3863.8793247529447}, {"id": "nnF6f36u19ZVrlAFwE1gug", "alias": "juniper-tulsa-3", "name": "Juniper", "image_url": "https://s3-media2.fl.yelpcdn.com/bphoto/uVc3DnKskFHNTB0AzedOMA/o.jpg", "is_closed": false, "url": "https://www.yelp.com/biz/juniper-tulsa-3?adjust_creative=TpLShpR2csZ2AtLGvsRWXw&utm_campaign=yelp_api_v3&utm_medium=api_v3_business_search&utm_source=TpLShpR2csZ2AtLGvsRWXw", "review_count": 190, "categories": [{"alias": "newamerican", "title": "American (New)"}, {"alias": "cocktailbars", "title": "Cocktail Bars"}, {"alias": "venues", "title": "Venues & Event Spaces"}], "rating": 4.5, "coordinates": {"latitude": 36.15492, "longitude": -95.98648}, "transactions": [], "price": "$$$", "location": {"address1": "324 E 3rd St", "address2": "", "address3": "", "city": "Tulsa", "zip_code": "74120", "country": "US", "state": "OK", "display_address": ["324 E 3rd St", "Tulsa, OK 74120"]}, "phone": "+19187941090", "display_phone": "(918) 794-1090", "distance": 7919.372353379209}, {"id": "dhcwLXdsWKlyS-hdNIjzRQ", "alias": "hodges-bend-tulsa", "name": "Hodges Bend", "image_url": "https://s3-media3.fl.yelpcdn.com/bphoto/dFfPWGZEFlp88K87JaNNzg/o.jpg", "is_closed": false, "url": "https://www.yelp.com/biz/hodges-bend-tulsa?adjust_creative=TpLShpR2csZ2AtLGvsRWXw&utm_campaign=yelp_api_v3&utm_medium=api_v3_business_search&utm_source=TpLShpR2csZ2AtLGvsRWXw", "review_count": 124, "categories": [{"alias": "coffee", "title": "Coffee & Tea"}, {"alias": "wine_bars", "title": "Wine Bars"}, {"alias": "cocktailbars", "title": "Cocktail Bars"}], "rating": 4.5, "coordinates": {"latitude": 36.1568248687112, "longitude": -95.9811484460396}, "transactions": [], "price": "$$", "location": {"address1": "823 E 3rd St", "address2": "", "address3": "", "city": "Tulsa", "zip_code": "74120", "country": "US", "state": "OK", "display_address": ["823 E 3rd St", "Tulsa, OK 74120"]}, "phone": "+19183984470", "display_phone": "(918) 398-4470", "distance": 7773.9826373625365}, {"id": "OcdTJnNdu9M44B1WwWtENQ", "alias": "first-watch-tulsa-6", "name": "First Watch", "image_url": "https://s3-media1.fl.yelpcdn.com/bphoto/fOT4krM3F0k8z3qRsef0nQ/o.jpg", "is_closed": false, "url": "https://www.yelp.com/biz/first-watch-tulsa-6?adjust_creative=TpLShpR2csZ2AtLGvsRWXw&utm_campaign=yelp_api_v3&utm_medium=api_v3_business_search&utm_source=TpLShpR2csZ2AtLGvsRWXw", "review_count": 140, "categories": [{"alias": "breakfast_brunch", "title": "Breakfast & Brunch"}, {"alias": "cafes", "title": "Cafes"}, {"alias": "tradamerican", "title": "American (Traditional)"}], "rating": 4.5, "coordinates": {"latitude": 36.0653099, "longitude": -95.8857699}, "transactions": [], "price": "$", "location": {"address1": "8104 East 68th St", "address2": null, "address3": null, "city": "Tulsa", "zip_code": "74133", "country": "US", "state": "OK", "display_address": ["8104 East 68th St", "Tulsa, OK 74133"]}, "phone": "+19186103447", "display_phone": "(918) 610-3447", "distance": 5552.615048611969}, {"id": "0nzOEQnH8yBWoxY1bhxLoQ", "alias": "old-school-bagel-cafe-tulsa", "name": "Old School Bagel Cafe", "image_url": "https://s3-media3.fl.yelpcdn.com/bphoto/k75TGYNIzDzZ5TyKWQafWQ/o.jpg", "is_closed": false, "url": "https://www.yelp.com/biz/old-school-bagel-cafe-tulsa?adjust_creative=TpLShpR2csZ2AtLGvsRWXw&utm_campaign=yelp_api_v3&utm_medium=api_v3_business_search&utm_source=TpLShpR2csZ2AtLGvsRWXw", "review_count": 142, "categories": [{"alias": "bakeries", "title": "Bakeries"}, {"alias": "bagels", "title": "Bagels"}, {"alias": "sandwiches", "title": "Sandwiches"}], "rating": 4.5, "coordinates": {"latitude": 36.10906, "longitude": -95.97529}, "transactions": [], "price": "$", "location": {"address1": "3723 S Peoria Ave", "address2": "", "address3": "", "city": "Tulsa", "zip_code": "74105", "country": "US", "state": "OK", "display_address": ["3723 S Peoria Ave", "Tulsa, OK 74105"]}, "phone": "+19187437400", "display_phone": "(918) 743-7400", "distance": 4384.10106292356}, {"id": "QPTR2M8cihVbXbaILSXvtg", "alias": "valkyrie-tulsa", "name": "Valkyrie", "image_url": "https://s3-media3.fl.yelpcdn.com/bphoto/B0x9aKxagJKvZnR93arjjA/o.jpg", "is_closed": false, "url": "https://www.yelp.com/biz/valkyrie-tulsa?adjust_creative=TpLShpR2csZ2AtLGvsRWXw&utm_campaign=yelp_api_v3&utm_medium=api_v3_business_search&utm_source=TpLShpR2csZ2AtLGvsRWXw", "review_count": 125, "categories": [{"alias": "cocktailbars", "title": "Cocktail Bars"}, {"alias": "beerbar", "title": "Beer Bar"}], "rating": 4.5, "coordinates": {"latitude": 36.158748, "longitude": -95.993085}, "transactions": [], "price": "$$", "location": {"address1": "13 E Brady St", "address2": "", "address3": "", "city": "Tulsa", "zip_code": "74103", "country": "US", "state": "OK", "display_address": ["13 E Brady St", "Tulsa, OK 74103"]}, "phone": "+19182952160", "display_phone": "(918) 295-2160", "distance": 8638.839125893257}, {"id": "dbuUMVNIXxpKC_nwPqICuA", "alias": "el-rio-verde-tulsa", "name": "El Rio Verde", "image_url": "https://s3-media2.fl.yelpcdn.com/bphoto/bcNF_-HpcI--dCVFYATpwQ/o.jpg", "is_closed": false, "url": "https://www.yelp.com/biz/el-rio-verde-tulsa?adjust_creative=TpLShpR2csZ2AtLGvsRWXw&utm_campaign=yelp_api_v3&utm_medium=api_v3_business_search&utm_source=TpLShpR2csZ2AtLGvsRWXw", "review_count": 192, "categories": [{"alias": "mexican", "title": "Mexican"}], "rating": 4.5, "coordinates": {"latitude": 36.16083, "longitude": -95.9695799}, "transactions": [], "price": "$", "location": {"address1": "38 N Trenton Ave", "address2": "", "address3": "", "city": "Tulsa", "zip_code": "74120", "country": "US", "state": "OK", "display_address": ["38 N Trenton Ave", "Tulsa, OK 74120"]}, "phone": "+19185922555", "display_phone": "(918) 592-2555", "distance": 7558.045396262736}, {"id": "aAJU1K5rfVIw1yRNUtKeLw", "alias": "white-river-fish-market-tulsa", "name": "White River Fish Market", "image_url": "https://s3-media4.fl.yelpcdn.com/bphoto/1CQSGLmIYa-ZHNobVV7Lfw/o.jpg", "is_closed": false, "url": "https://www.yelp.com/biz/white-river-fish-market-tulsa?adjust_creative=TpLShpR2csZ2AtLGvsRWXw&utm_campaign=yelp_api_v3&utm_medium=api_v3_business_search&utm_source=TpLShpR2csZ2AtLGvsRWXw", "review_count": 217, "categories": [{"alias": "seafood", "title": "Seafood"}], "rating": 4.5, "coordinates": {"latitude": 36.1800308, "longitude": -95.9047249}, "transactions": [], "price": "$$", "location": {"address1": "1708 N Sheridan Rd", "address2": "", "address3": "", "city": "Tulsa", "zip_code": "74115", "country": "US", "state": "OK", "display_address": ["1708 N Sheridan Rd", "Tulsa, OK 74115"]}, "phone": "+19188351910", "display_phone": "(918) 835-1910", "distance": 8888.3381209223}, {"id": "gCZSTqoRZt7nahudzq2dnw", "alias": "topeca-coffee-tulsa-6", "name": "Topeca Coffee", "image_url": "https://s3-media4.fl.yelpcdn.com/bphoto/K63tj_8Cl2efsN0VuBW4Lg/o.jpg", "is_closed": false, "url": "https://www.yelp.com/biz/topeca-coffee-tulsa-6?adjust_creative=TpLShpR2csZ2AtLGvsRWXw&utm_campaign=yelp_api_v3&utm_medium=api_v3_business_search&utm_source=TpLShpR2csZ2AtLGvsRWXw", "review_count": 127, "categories": [{"alias": "coffeeroasteries", "title": "Coffee Roasteries"}, {"alias": "breakfast_brunch", "title": "Breakfast & Brunch"}, {"alias": "sandwiches", "title": "Sandwiches"}], "rating": 4.5, "coordinates": {"latitude": 36.1515779, "longitude": -95.9885571}, "transactions": [], "price": "$$", "location": {"address1": "507 S Boston Ave", "address2": "", "address3": "Philcade bldg", "city": "Tulsa", "zip_code": "74103", "country": "US", "state": "OK", "display_address": ["507 S Boston Ave", "Philcade bldg", "Tulsa, OK 74103"]}, "phone": "+19185929090", "display_phone": "(918) 592-9090", "distance": 7783.903381342238}, {"id": "1aTj-CvXToqVBLs0r33VLA", "alias": "siegis-sausage-factory-tulsa-2", "name": "Siegi's Sausage Factory", "image_url": "https://s3-media3.fl.yelpcdn.com/bphoto/gv8BCaaMa-x31exFEAGRdg/o.jpg", "is_closed": false, "url": "https://www.yelp.com/biz/siegis-sausage-factory-tulsa-2?adjust_creative=TpLShpR2csZ2AtLGvsRWXw&utm_campaign=yelp_api_v3&utm_medium=api_v3_business_search&utm_source=TpLShpR2csZ2AtLGvsRWXw", "review_count": 146, "categories": [{"alias": "meats", "title": "Meat Shops"}, {"alias": "delis", "title": "Delis"}, {"alias": "german", "title": "German"}], "rating": 4.5, "coordinates": {"latitude": 36.0454864501953, "longitude": -95.9050064086914}, "transactions": [], "price": "$$", "location": {"address1": "8104 S Sheridan Rd", "address2": "", "address3": "", "city": "Tulsa", "zip_code": "74133", "country": "US", "state": "OK", "display_address": ["8104 S Sheridan Rd", "Tulsa, OK 74133"]}, "phone": "+19184928988", "display_phone": "(918) 492-8988", "distance": 6622.184884719668}, {"id": "S25gkWP6OQcYyqvGuIhJPw", "alias": "mcnellies-tulsa", "name": "McNellie's", "image_url": "https://s3-media2.fl.yelpcdn.com/bphoto/Y3vNkAs6kILVE_GZN63sXA/o.jpg", "is_closed": false, "url": "https://www.yelp.com/biz/mcnellies-tulsa?adjust_creative=TpLShpR2csZ2AtLGvsRWXw&utm_campaign=yelp_api_v3&utm_medium=api_v3_business_search&utm_source=TpLShpR2csZ2AtLGvsRWXw", "review_count": 283, "categories": [{"alias": "pubs", "title": "Pubs"}, {"alias": "irish", "title": "Irish"}, {"alias": "newamerican", "title": "American (New)"}], "rating": 4.0, "coordinates": {"latitude": 36.15763, "longitude": -95.98635}, "transactions": [], "price": "$$", "location": {"address1": "409 E 1st St", "address2": "", "address3": "", "city": "Tulsa", "zip_code": "74120", "country": "US", "state": "OK", "display_address": ["409 E 1st St", "Tulsa, OK 74120"]}, "phone": "+19183827468", "display_phone": "(918) 382-7468", "distance": 8160.211037694771}], [{"id": "iu7ALc9Ulw7BdDhPYdDtzg", "alias": "tarahumaras-mexican-cafe-and-cantina-norman", "name": "Tarahumara's Mexican Cafe & Cantina", "image_url": "https://s3-media2.fl.yelpcdn.com/bphoto/k56uf8Mm4nuOxZ4ajgHq6w/o.jpg", "is_closed": false, "url": "https://www.yelp.com/biz/tarahumaras-mexican-cafe-and-cantina-norman?adjust_creative=TpLShpR2csZ2AtLGvsRWXw&utm_campaign=yelp_api_v3&utm_medium=api_v3_business_search&utm_source=TpLShpR2csZ2AtLGvsRWXw", "review_count": 336, "categories": [{"alias": "mexican", "title": "Mexican"}], "rating": 4.5, "coordinates": {"latitude": 35.22795, "longitude": -97.4414199}, "transactions": [], "price": "$$", "location": {"address1": "702 N Porter Ave", "address2": "", "address3": "", "city": "Norman", "zip_code": "73071", "country": "US", "state": "OK", "display_address": ["702 N Porter Ave", "Norman, OK 73071"]}, "phone": "+14053608070", "display_phone": "(405) 360-8070", "distance": 1373.6260219096866}, {"id": "JLXYMPJOV5AQ0sr1jQaC0Q", "alias": "the-diner-norman", "name": "The Diner", "image_url": "https://s3-media2.fl.yelpcdn.com/bphoto/ZpW1WRz8mQTmwEGJI_C8dg/o.jpg", "is_closed": false, "url": "https://www.yelp.com/biz/the-diner-norman?adjust_creative=TpLShpR2csZ2AtLGvsRWXw&utm_campaign=yelp_api_v3&utm_medium=api_v3_business_search&utm_source=TpLShpR2csZ2AtLGvsRWXw", "review_count": 189, "categories": [{"alias": "diners", "title": "Diners"}, {"alias": "breakfast_brunch", "title": "Breakfast & Brunch"}, {"alias": "tradamerican", "title": "American (Traditional)"}], "rating": 4.5, "coordinates": {"latitude": 35.2221527099609, "longitude": -97.4415664672852}, "transactions": [], "price": "$", "location": {"address1": "213 E Main St", "address2": "", "address3": "", "city": "Norman", "zip_code": "73069", "country": "US", "state": "OK", "display_address": ["213 E Main St", "Norman, OK 73069"]}, "phone": "+14053296642", "display_phone": "(405) 329-6642", "distance": 1740.1314120664404}, {"id": "_4adbFXqM4g-cvs_sNuSeg", "alias": "the-garage-burgers-and-beer-norman", "name": "The Garage Burgers and Beer", "image_url": "https://s3-media1.fl.yelpcdn.com/bphoto/kN0Nup_pgqY4irVpR8YqUg/o.jpg", "is_closed": false, "url": "https://www.yelp.com/biz/the-garage-burgers-and-beer-norman?adjust_creative=TpLShpR2csZ2AtLGvsRWXw&utm_campaign=yelp_api_v3&utm_medium=api_v3_business_search&utm_source=TpLShpR2csZ2AtLGvsRWXw", "review_count": 194, "categories": [{"alias": "burgers", "title": "Burgers"}, {"alias": "sportsbars", "title": "Sports Bars"}, {"alias": "tradamerican", "title": "American (Traditional)"}], "rating": 4.5, "coordinates": {"latitude": 35.22256, "longitude": -97.44036}, "transactions": [], "price": "$", "location": {"address1": "307 E. Main", "address2": "", "address3": "", "city": "Norman", "zip_code": "73069", "country": "US", "state": "OK", "display_address": ["307 E. Main", "Norman, OK 73069"]}, "phone": "+14057017035", "display_phone": "(405) 701-7035", "distance": 1625.3149360555972}, {"id": "6_apQBqAHERfpyxbkFcjhA", "alias": "pepe-delgados-norman", "name": "Pepe Delgados", "image_url": "https://s3-media4.fl.yelpcdn.com/bphoto/wiVV45mx0Z9sJDr6uuCaUg/o.jpg", "is_closed": false, "url": "https://www.yelp.com/biz/pepe-delgados-norman?adjust_creative=TpLShpR2csZ2AtLGvsRWXw&utm_campaign=yelp_api_v3&utm_medium=api_v3_business_search&utm_source=TpLShpR2csZ2AtLGvsRWXw", "review_count": 139, "categories": [{"alias": "mexican", "title": "Mexican"}], "rating": 4.5, "coordinates": {"latitude": 35.211808, "longitude": -97.443734}, "transactions": [], "price": "$", "location": {"address1": "786 Asp Ave", "address2": "", "address3": "", "city": "Norman", "zip_code": "73069", "country": "US", "state": "OK", "display_address": ["786 Asp Ave", "Norman, OK 73069"]}, "phone": "+14053216232", "display_phone": "(405) 321-6232", "distance": 2752.1199582347626}, {"id": "u9FEb4b8Lm8sGJhENBkgPA", "alias": "greek-house-norman", "name": "Greek House", "image_url": "https://s3-media4.fl.yelpcdn.com/bphoto/acjW6VHykWBC56Fj-v4f6w/o.jpg", "is_closed": false, "url": "https://www.yelp.com/biz/greek-house-norman?adjust_creative=TpLShpR2csZ2AtLGvsRWXw&utm_campaign=yelp_api_v3&utm_medium=api_v3_business_search&utm_source=TpLShpR2csZ2AtLGvsRWXw", "review_count": 114, "categories": [{"alias": "greek", "title": "Greek"}, {"alias": "hotdogs", "title": "Fast Food"}], "rating": 4.5, "coordinates": {"latitude": 35.2115783691406, "longitude": -97.4416198730469}, "transactions": [], "price": "$", "location": {"address1": "768 Jenkins Ave", "address2": "", "address3": "", "city": "Norman", "zip_code": "73069", "country": "US", "state": "OK", "display_address": ["768 Jenkins Ave", "Norman, OK 73069"]}, "phone": "+14053646300", "display_phone": "(405) 364-6300", "distance": 2663.802787790273}, {"id": "MIToCYgbBqfUXaFs3lsOzg", "alias": "benvenutis-norman-2", "name": "Benvenuti's", "image_url": "https://s3-media4.fl.yelpcdn.com/bphoto/1abTHqxQfshoLAE0UNvH1w/o.jpg", "is_closed": false, "url": "https://www.yelp.com/biz/benvenutis-norman-2?adjust_creative=TpLShpR2csZ2AtLGvsRWXw&utm_campaign=yelp_api_v3&utm_medium=api_v3_business_search&utm_source=TpLShpR2csZ2AtLGvsRWXw", "review_count": 121, "categories": [{"alias": "italian", "title": "Italian"}], "rating": 4.5, "coordinates": {"latitude": 35.22084, "longitude": -97.44447}, "transactions": [], "price": "$$$", "location": {"address1": "105 W Main St", "address2": "", "address3": "", "city": "Norman", "zip_code": "73019", "country": "US", "state": "OK", "display_address": ["105 W Main St", "Norman, OK 73019"]}, "phone": "+14053105271", "display_phone": "(405) 310-5271", "distance": 2035.858573496611}, {"id": "BD7RUWhjqwhxpinHVe1--w", "alias": "scratch-kitchen-and-cocktails-norman", "name": "Scratch Kitchen & Cocktails", "image_url": "https://s3-media1.fl.yelpcdn.com/bphoto/ZnAP1fZThiLlyd23FH29ag/o.jpg", "is_closed": false, "url": "https://www.yelp.com/biz/scratch-kitchen-and-cocktails-norman?adjust_creative=TpLShpR2csZ2AtLGvsRWXw&utm_campaign=yelp_api_v3&utm_medium=api_v3_business_search&utm_source=TpLShpR2csZ2AtLGvsRWXw", "review_count": 231, "categories": [{"alias": "newamerican", "title": "American (New)"}, {"alias": "lounges", "title": "Lounges"}, {"alias": "breakfast_brunch", "title": "Breakfast & Brunch"}], "rating": 4.0, "coordinates": {"latitude": 35.2200337631819, "longitude": -97.445139174884}, "transactions": ["restaurant_reservation"], "price": "$$", "location": {"address1": "132 W Main St", "address2": "", "address3": "", "city": "Norman", "zip_code": "73069", "country": "US", "state": "OK", "display_address": ["132 W Main St", "Norman, OK 73069"]}, "phone": "+14058012900", "display_phone": "(405) 801-2900", "distance": 2135.327982807009}, {"id": "EgaCiqv38DnHMqLJ3MbMEA", "alias": "gray-owl-coffee-norman", "name": "Gray Owl Coffee", "image_url": "https://s3-media1.fl.yelpcdn.com/bphoto/O3gAuHXGZeTunrIeDFx2jg/o.jpg", "is_closed": false, "url": "https://www.yelp.com/biz/gray-owl-coffee-norman?adjust_creative=TpLShpR2csZ2AtLGvsRWXw&utm_campaign=yelp_api_v3&utm_medium=api_v3_business_search&utm_source=TpLShpR2csZ2AtLGvsRWXw", "review_count": 109, "categories": [{"alias": "coffee", "title": "Coffee & Tea"}, {"alias": "desserts", "title": "Desserts"}], "rating": 4.0, "coordinates": {"latitude": 35.22318, "longitude": -97.44173}, "transactions": [], "price": "$", "location": {"address1": "223 E Gray St", "address2": "", "address3": "", "city": "Norman", "zip_code": "73069", "country": "US", "state": "OK", "display_address": ["223 E Gray St", "Norman, OK 73069"]}, "phone": "+14057012929", "display_phone": "(405) 701-2929", "distance": 1674.5756177980752}, {"id": "G34x7Rpi6fu7CcJAEZjUfg", "alias": "rays-bbq-norman", "name": "Ray's BBQ", "image_url": "https://s3-media2.fl.yelpcdn.com/bphoto/JMVgn08QPl1mOob5qxeliw/o.jpg", "is_closed": false, "url": "https://www.yelp.com/biz/rays-bbq-norman?adjust_creative=TpLShpR2csZ2AtLGvsRWXw&utm_campaign=yelp_api_v3&utm_medium=api_v3_business_search&utm_source=TpLShpR2csZ2AtLGvsRWXw", "review_count": 106, "categories": [{"alias": "bbq", "title": "Barbeque"}], "rating": 4.5, "coordinates": {"latitude": 35.20353, "longitude": -97.46422}, "transactions": [], "price": "$$", "location": {"address1": "1514 W Lindsey St", "address2": "", "address3": "", "city": "Norman", "zip_code": "73069", "country": "US", "state": "OK", "display_address": ["1514 W Lindsey St", "Norman, OK 73069"]}, "phone": "+14053294040", "display_phone": "(405) 329-4040", "distance": 4642.178687023875}, {"id": "AJoz-I3rZrPCWJvxbZU3cw", "alias": "syrup-norman-norman-4", "name": "Syrup - Norman", "image_url": "https://s3-media2.fl.yelpcdn.com/bphoto/8QekmE7CJhD-DVlvKSkzqA/o.jpg", "is_closed": false, "url": "https://www.yelp.com/biz/syrup-norman-norman-4?adjust_creative=TpLShpR2csZ2AtLGvsRWXw&utm_campaign=yelp_api_v3&utm_medium=api_v3_business_search&utm_source=TpLShpR2csZ2AtLGvsRWXw", "review_count": 203, "categories": [{"alias": "breakfast_brunch", "title": "Breakfast & Brunch"}, {"alias": "coffee", "title": "Coffee & Tea"}, {"alias": "waffles", "title": "Waffles"}], "rating": 3.5, "coordinates": {"latitude": 35.221649, "longitude": -97.442497}, "transactions": [], "price": "$$", "location": {"address1": "123 E Main St", "address2": "", "address3": "", "city": "Norman", "zip_code": "73069", "country": "US", "state": "OK", "display_address": ["123 E Main St", "Norman, OK 73069"]}, "phone": "+14057011143", "display_phone": "(405) 701-1143", "distance": 1836.5685282126915}, {"id": "X74fKJsaU_xALpK7hNyR0g", "alias": "crimson-and-whipped-cream-norman", "name": "Crimson & Whipped Cream", "image_url": "https://s3-media1.fl.yelpcdn.com/bphoto/DzXs1GpjNdOq8FZw1yg0Iw/o.jpg", "is_closed": false, "url": "https://www.yelp.com/biz/crimson-and-whipped-cream-norman?adjust_creative=TpLShpR2csZ2AtLGvsRWXw&utm_campaign=yelp_api_v3&utm_medium=api_v3_business_search&utm_source=TpLShpR2csZ2AtLGvsRWXw", "review_count": 79, "categories": [{"alias": "coffee", "title": "Coffee & Tea"}, {"alias": "bakeries", "title": "Bakeries"}, {"alias": "desserts", "title": "Desserts"}], "rating": 4.0, "coordinates": {"latitude": 35.2131236, "longitude": -97.4448841}, "transactions": [], "price": "$", "location": {"address1": "331 White St", "address2": "", "address3": "Campus Corner", "city": "Norman", "zip_code": "73069", "country": "US", "state": "OK", "display_address": ["331 White St", "Campus Corner", "Norman, OK 73069"]}, "phone": "+14053078990", "display_phone": "(405) 307-8990", "distance": 2695.9305876503026}, {"id": "It8A44BJjgdhI_BrRs837A", "alias": "juan-del-fuego-norman", "name": "Juan Del Fuego", "image_url": "https://s3-media3.fl.yelpcdn.com/bphoto/QLgzNnEcb_9jOc6zwfhfnw/o.jpg", "is_closed": false, "url": "https://www.yelp.com/biz/juan-del-fuego-norman?adjust_creative=TpLShpR2csZ2AtLGvsRWXw&utm_campaign=yelp_api_v3&utm_medium=api_v3_business_search&utm_source=TpLShpR2csZ2AtLGvsRWXw", "review_count": 88, "categories": [{"alias": "diners", "title": "Diners"}, {"alias": "mexican", "title": "Mexican"}], "rating": 4.5, "coordinates": {"latitude": 35.2165375, "longitude": -97.4900818}, "transactions": [], "price": "$", "location": {"address1": "223 34th Ave SW", "address2": "", "address3": "", "city": "Norman", "zip_code": "73072", "country": "US", "state": "OK", "display_address": ["223 34th Ave SW", "Norman, OK 73072"]}, "phone": "+14053102030", "display_phone": "(405) 310-2030", "distance": 6051.825764480964}, {"id": "vmSO_kywCQ45uXpwRqgL_g", "alias": "fusion-cafe-wing-it-norman", "name": "Fusion Cafe: Wing It", "image_url": "https://s3-media1.fl.yelpcdn.com/bphoto/B8OTwv4nPOY-YoqIJPAUdA/o.jpg", "is_closed": false, "url": "https://www.yelp.com/biz/fusion-cafe-wing-it-norman?adjust_creative=TpLShpR2csZ2AtLGvsRWXw&utm_campaign=yelp_api_v3&utm_medium=api_v3_business_search&utm_source=TpLShpR2csZ2AtLGvsRWXw", "review_count": 54, "categories": [{"alias": "korean", "title": "Korean"}, {"alias": "cafes", "title": "Cafes"}, {"alias": "asianfusion", "title": "Asian Fusion"}], "rating": 4.5, "coordinates": {"latitude": 35.2183471620083, "longitude": -97.4539567530155}, "transactions": [], "price": "$$", "location": {"address1": "760 Main St", "address2": "", "address3": "", "city": "Norman", "zip_code": "73069", "country": "US", "state": "OK", "display_address": ["760 Main St", "Norman, OK 73069"]}, "phone": "+14052172477", "display_phone": "(405) 217-2477", "distance": 2888.742975248544}, {"id": "yTcOp9txWxl-TXebQ74EpQ", "alias": "full-moon-sushi-norman", "name": "Full Moon Sushi", "image_url": "https://s3-media2.fl.yelpcdn.com/bphoto/PBwnykBX4aI9j9iptx4qbQ/o.jpg", "is_closed": false, "url": "https://www.yelp.com/biz/full-moon-sushi-norman?adjust_creative=TpLShpR2csZ2AtLGvsRWXw&utm_campaign=yelp_api_v3&utm_medium=api_v3_business_search&utm_source=TpLShpR2csZ2AtLGvsRWXw", "review_count": 83, "categories": [{"alias": "japanese", "title": "Japanese"}, {"alias": "sushi", "title": "Sushi Bars"}], "rating": 4.5, "coordinates": {"latitude": 35.222216, "longitude": -97.439386}, "transactions": [], "price": "$$", "location": {"address1": "326 E Main St", "address2": "", "address3": "", "city": "Norman", "zip_code": "73069", "country": "US", "state": "OK", "display_address": ["326 E Main St", "Norman, OK 73069"]}, "phone": "+14057011800", "display_phone": "(405) 701-1800", "distance": 1590.4312373247426}, {"id": "A2cYDqxY0aCFE_YWWWbAJQ", "alias": "das-boot-camp-restaurant-and-bar-norman", "name": "Das Boot Camp Restaurant & Bar", "image_url": "https://s3-media3.fl.yelpcdn.com/bphoto/8NLmMfSP-biVvjLoN54fWw/o.jpg", "is_closed": false, "url": "https://www.yelp.com/biz/das-boot-camp-restaurant-and-bar-norman?adjust_creative=TpLShpR2csZ2AtLGvsRWXw&utm_campaign=yelp_api_v3&utm_medium=api_v3_business_search&utm_source=TpLShpR2csZ2AtLGvsRWXw", "review_count": 116, "categories": [{"alias": "german", "title": "German"}, {"alias": "bars", "title": "Bars"}], "rating": 4.0, "coordinates": {"latitude": 35.2223282, "longitude": -97.4408569}, "transactions": [], "price": "$$", "location": {"address1": "229 E Main St", "address2": "", "address3": "", "city": "Norman", "zip_code": "73069", "country": "US", "state": "OK", "display_address": ["229 E Main St", "Norman, OK 73069"]}, "phone": "+14057013748", "display_phone": "(405) 701-3748", "distance": 1677.315241797682}, {"id": "2YEGpegmndZ5_J7VP-tbnQ", "alias": "the-mont-norman-3", "name": "The Mont", "image_url": "https://s3-media4.fl.yelpcdn.com/bphoto/MLWlN1nOisU84c6NDKg7gg/o.jpg", "is_closed": false, "url": "https://www.yelp.com/biz/the-mont-norman-3?adjust_creative=TpLShpR2csZ2AtLGvsRWXw&utm_campaign=yelp_api_v3&utm_medium=api_v3_business_search&utm_source=TpLShpR2csZ2AtLGvsRWXw", "review_count": 171, "categories": [{"alias": "bars", "title": "Bars"}, {"alias": "mexican", "title": "Mexican"}, {"alias": "tradamerican", "title": "American (Traditional)"}], "rating": 3.5, "coordinates": {"latitude": 35.21079, "longitude": -97.43661}, "transactions": [], "price": "$$", "location": {"address1": "1300 Classen Blvd", "address2": "", "address3": "", "city": "Norman", "zip_code": "73071", "country": "US", "state": "OK", "display_address": ["1300 Classen Blvd", "Norman, OK 73071"]}, "phone": "+14053293330", "display_phone": "(405) 329-3330", "distance": 2557.405891487566}, {"id": "Y2rlScp-a0nhyd_tzUHg3g", "alias": "blackbird-gastropub-norman", "name": "BlackBird GastroPub", "image_url": "https://s3-media3.fl.yelpcdn.com/bphoto/XznpBV_5l3GrMboipxN6bg/o.jpg", "is_closed": false, "url": "https://www.yelp.com/biz/blackbird-gastropub-norman?adjust_creative=TpLShpR2csZ2AtLGvsRWXw&utm_campaign=yelp_api_v3&utm_medium=api_v3_business_search&utm_source=TpLShpR2csZ2AtLGvsRWXw", "review_count": 128, "categories": [{"alias": "gastropubs", "title": "Gastropubs"}], "rating": 4.0, "coordinates": {"latitude": 35.2119462483, "longitude": -97.4454759704}, "transactions": [], "price": "$$", "location": {"address1": "575 S University Blvd", "address2": "Ste 110", "address3": "", "city": "Norman", "zip_code": "73069", "country": "US", "state": "OK", "display_address": ["575 S University Blvd", "Ste 110", "Norman, OK 73069"]}, "phone": "+14059285555", "display_phone": "(405) 928-5555", "distance": 2827.7861981411866}, {"id": "zkWVFTxCZWBWk92oHq2tkg", "alias": "fuzzys-taco-shop-norman", "name": "Fuzzy's Taco Shop", "image_url": "https://s3-media1.fl.yelpcdn.com/bphoto/1z0Laqi8NGAQxWklnqrbjA/o.jpg", "is_closed": false, "url": "https://www.yelp.com/biz/fuzzys-taco-shop-norman?adjust_creative=TpLShpR2csZ2AtLGvsRWXw&utm_campaign=yelp_api_v3&utm_medium=api_v3_business_search&utm_source=TpLShpR2csZ2AtLGvsRWXw", "review_count": 75, "categories": [{"alias": "mexican", "title": "Mexican"}, {"alias": "tex-mex", "title": "Tex-Mex"}, {"alias": "breakfast_brunch", "title": "Breakfast & Brunch"}], "rating": 4.0, "coordinates": {"latitude": 35.2123, "longitude": -97.444}, "transactions": [], "price": "$", "location": {"address1": "752 Asp Ave", "address2": "", "address3": "", "city": "Norman", "zip_code": "73069", "country": "US", "state": "OK", "display_address": ["752 Asp Ave", "Norman, OK 73069"]}, "phone": "+14057011000", "display_phone": "(405) 701-1000", "distance": 2718.1259274480235}, {"id": "-Ix4JDCu2K1wH1Uv6qY6MA", "alias": "mamaveca-mexican-and-peruvian-restaurant-norman", "name": "Mamaveca Mexican And Peruvian Restaurant", "image_url": "https://s3-media3.fl.yelpcdn.com/bphoto/ozQvzHbR3wntJKwh7nKfUw/o.jpg", "is_closed": false, "url": "https://www.yelp.com/biz/mamaveca-mexican-and-peruvian-restaurant-norman?adjust_creative=TpLShpR2csZ2AtLGvsRWXw&utm_campaign=yelp_api_v3&utm_medium=api_v3_business_search&utm_source=TpLShpR2csZ2AtLGvsRWXw", "review_count": 70, "categories": [{"alias": "mexican", "title": "Mexican"}, {"alias": "peruvian", "title": "Peruvian"}], "rating": 4.5, "coordinates": {"latitude": 35.2231409400702, "longitude": -97.4809779971838}, "transactions": [], "price": "$$", "location": {"address1": "2551 Hemphill Dr", "address2": "", "address3": "", "city": "Norman", "zip_code": "73069", "country": "US", "state": "OK", "display_address": ["2551 Hemphill Dr", "Norman, OK 73069"]}, "phone": "+14055734003", "display_phone": "(405) 573-4003", "distance": 4802.80896111285}, {"id": "jAJoA9sZT1fNNBUG_jy9ZQ", "alias": "coriander-cafe-norman", "name": "Coriander Cafe", "image_url": "https://s3-media4.fl.yelpcdn.com/bphoto/DqhLXmkCkJAfLpjPEscjvg/o.jpg", "is_closed": false, "url": "https://www.yelp.com/biz/coriander-cafe-norman?adjust_creative=TpLShpR2csZ2AtLGvsRWXw&utm_campaign=yelp_api_v3&utm_medium=api_v3_business_search&utm_source=TpLShpR2csZ2AtLGvsRWXw", "review_count": 97, "categories": [{"alias": "vietnamese", "title": "Vietnamese"}, {"alias": "asianfusion", "title": "Asian Fusion"}], "rating": 4.0, "coordinates": {"latitude": 35.2132099, "longitude": -97.4449099}, "transactions": [], "price": "$", "location": {"address1": "323 White St", "address2": "", "address3": "", "city": "Norman", "zip_code": "73069", "country": "US", "state": "OK", "display_address": ["323 White St", "Norman, OK 73069"]}, "phone": "+14058013958", "display_phone": "(405) 801-3958", "distance": 2683.648662110998}]]}