{"total": 8700, "businesses": [[{"id": "ctHjyadbDQAtUFfkcAFEHw", "alias": "zahav-philadelphia", "name": "Zahav", "image_url": "https://s3-media1.fl.yelpcdn.com/bphoto/zHBLOKECIF6O9DbRxRl-tA/o.jpg", "is_closed": false, "url": "https://www.yelp.com/biz/zahav-philadelphia?adjust_creative=TpLShpR2csZ2AtLGvsRWXw&utm_campaign=yelp_api_v3&utm_medium=api_v3_business_search&utm_source=TpLShpR2csZ2AtLGvsRWXw", "review_count": 2228, "categories": [{"alias": "mideastern", "title": "Middle Eastern"}], "rating": 4.5, "coordinates": {"latitude": 39.9462611465167, "longitude": -75.1451350778608}, "transactions": [], "price": "$$$", "location": {"address1": "237 St James Pl", "address2": "", "address3": "", "city": "Philadelphia", "zip_code": "19106", "country": "US", "state": "PA", "display_address": ["237 St James Pl", "Philadelphia, PA 19106"]}, "phone": "+12156258800", "display_phone": "(215) 625-8800", "distance": 2374.303399662379}, {"id": "6ajnOk0GcY9xbb5Ocaw8Gw", "alias": "barbuzzo-philadelphia", "name": "Barbuzzo", "image_url": "https://s3-media3.fl.yelpcdn.com/bphoto/tuhLWknWFBqLPwVTQN8xRg/o.jpg", "is_closed": false, "url": "https://www.yelp.com/biz/barbuzzo-philadelphia?adjust_creative=TpLShpR2csZ2AtLGvsRWXw&utm_campaign=yelp_api_v3&utm_medium=api_v3_business_search&utm_source=TpLShpR2csZ2AtLGvsRWXw", "review_count": 2157, "categories": [{"alias": "mediterranean", "title": "Mediterranean"}, {"alias": "pizza", "title": "Pizza"}], "rating": 4.5, "coordinates": {"latitude": 39.94999, "longitude": -75.16216}, "transactions": [], "price": "$$", "location": {"address1": "110 S 13th St", "address2": "", "address3": "", "city": "Philadelphia", "zip_code": "19107", "country": "US", "state": "PA", "display_address": ["110 S 13th St", "Philadelphia, PA 19107"]}, "phone": "+12155469300", "display_phone": "(215) 546-9300", "distance": 877.931789849032}, {"id": "6_T2xzR74JqGCTPefAD8Tw", "alias": "morimoto-philadelphia", "name": "Morimoto", "image_url": "https://s3-media1.fl.yelpcdn.com/bphoto/NBARYXwovM-a43279sMcTQ/o.jpg", "is_closed": false, "url": "https://www.yelp.com/biz/morimoto-philadelphia?adjust_creative=TpLShpR2csZ2AtLGvsRWXw&utm_campaign=yelp_api_v3&utm_medium=api_v3_business_search&utm_source=TpLShpR2csZ2AtLGvsRWXw", "review_count": 1607, "categories": [{"alias": "japanese", "title": "Japanese"}, {"alias": "sushi", "title": "Sushi Bars"}], "rating": 4.5, "coordinates": {"latitude": 39.9496652298936, "longitude": -75.1532727008282}, "transactions": [], "price": "$$$$", "location": {"address1": "723 Chestnut St", "address2": "", "address3": "", "city": "Philadelphia", "zip_code": "19106", "country": "US", "state": "PA", "display_address": ["723 Chestnut St", "Philadelphia, PA 19106"]}, "phone": "+12154139070", "display_phone": "(215) 413-9070", "distance": 1595.5180155687635}, {"id": "K7KHmHzxNwzqiijSJeKe_A", "alias": "cafe-la-maude-philadelphia", "name": "Cafe La Maude", "image_url": "https://s3-media2.fl.yelpcdn.com/bphoto/Fb1SQd58QNI3ei-ZyY8Ctw/o.jpg", "is_closed": false, "url": "https://www.yelp.com/biz/cafe-la-maude-philadelphia?adjust_creative=TpLShpR2csZ2AtLGvsRWXw&utm_campaign=yelp_api_v3&utm_medium=api_v3_business_search&utm_source=TpLShpR2csZ2AtLGvsRWXw", "review_count": 945, "categories": [{"alias": "cafes", "title": "Cafes"}, {"alias": "breakfast_brunch", "title": "Breakfast & Brunch"}, {"alias": "newamerican", "title": "American (New)"}], "rating": 4.5, "coordinates": {"latitude": 39.963948, "longitude": -75.144364}, "transactions": [], "price": "$$", "location": {"address1": "816 N 4th St", "address2": "", "address3": "", "city": "Philadelphia", "zip_code": "19123", "country": "US", "state": "PA", "display_address": ["816 N 4th St", "Philadelphia, PA 19123"]}, "phone": "+12673187869", "display_phone": "(267) 318-7869", "distance": 2551.6295477724807}, {"id": "2CDI713ATuxHfnB5b-sBdw", "alias": "vedge-philadelphia", "name": "Vedge", "image_url": "https://s3-media2.fl.yelpcdn.com/bphoto/MdxZ_Ro64mvMG-XGHytc_A/o.jpg", "is_closed": false, "url": "https://www.yelp.com/biz/vedge-philadelphia?adjust_creative=TpLShpR2csZ2AtLGvsRWXw&utm_campaign=yelp_api_v3&utm_medium=api_v3_business_search&utm_source=TpLShpR2csZ2AtLGvsRWXw", "review_count": 1136, "categories": [{"alias": "vegan", "title": "Vegan"}, {"alias": "vegetarian", "title": "Vegetarian"}], "rating": 4.5, "coordinates": {"latitude": 39.9479310476302, "longitude": -75.1614279836694}, "transactions": [], "price": "$$$", "location": {"address1": "1221 Locust St", "address2": "", "address3": "", "city": "Philadelphia", "zip_code": "19107", "country": "US", "state": "PA", "display_address": ["1221 Locust St", "Philadelphia, PA 19107"]}, "phone": "+12153207500", "display_phone": "(215) 320-7500", "distance": 1057.1936224674564}, {"id": "i_FWONQD1ZBqrNE2b-M5Ug", "alias": "talulas-garden-philadelphia", "name": "Talula's Garden", "image_url": "https://s3-media3.fl.yelpcdn.com/bphoto/wwZpwvmYvK9wSH16IQ9TxQ/o.jpg", "is_closed": false, "url": "https://www.yelp.com/biz/talulas-garden-philadelphia?adjust_creative=TpLShpR2csZ2AtLGvsRWXw&utm_campaign=yelp_api_v3&utm_medium=api_v3_business_search&utm_source=TpLShpR2csZ2AtLGvsRWXw", "review_count": 1324, "categories": [{"alias": "newamerican", "title": "American (New)"}], "rating": 4.5, "coordinates": {"latitude": 39.9473272217862, "longitude": -75.1535421779099}, "transactions": [], "price": "$$$", "location": {"address1": "210 W Washington Sq", "address2": "", "address3": "", "city": "Philadelphia", "zip_code": "19106", "country": "US", "state": "PA", "display_address": ["210 W Washington Sq", "Philadelphia, PA 19106"]}, "phone": "+12155927787", "display_phone": "(215) 592-7787", "distance": 1667.8342649488502}, {"id": "S8ZFYEgMejpChID8tzKo9A", "alias": "amada-philadelphia", "name": "Amada", "image_url": "https://s3-media2.fl.yelpcdn.com/bphoto/WpBlyKgHn0dIagQ5iSW_pg/o.jpg", "is_closed": false, "url": "https://www.yelp.com/biz/amada-philadelphia?adjust_creative=TpLShpR2csZ2AtLGvsRWXw&utm_campaign=yelp_api_v3&utm_medium=api_v3_business_search&utm_source=TpLShpR2csZ2AtLGvsRWXw", "review_count": 1816, "categories": [{"alias": "tapas", "title": "Tapas Bars"}, {"alias": "breakfast_brunch", "title": "Breakfast & Brunch"}, {"alias": "spanish", "title": "Spanish"}], "rating": 4.0, "coordinates": {"latitude": 39.9487, "longitude": -75.14476}, "transactions": ["delivery"], "price": "$$$", "location": {"address1": "217 Chestnut St", "address2": null, "address3": "", "city": "Philadelphia", "zip_code": "19106", "country": "US", "state": "PA", "display_address": ["217 Chestnut St", "Philadelphia, PA 19106"]}, "phone": "+12156252450", "display_phone": "(215) 625-2450", "distance": 2316.5054848855866}, {"id": "8pqdJjefYq-a9IBSJJmKwA", "alias": "the-dandelion-philadelphia", "name": "The Dandelion", "image_url": "https://s3-media1.fl.yelpcdn.com/bphoto/IUEnArSsPZglIkEWUUefoQ/o.jpg", "is_closed": false, "url": "https://www.yelp.com/biz/the-dandelion-philadelphia?adjust_creative=TpLShpR2csZ2AtLGvsRWXw&utm_campaign=yelp_api_v3&utm_medium=api_v3_business_search&utm_source=TpLShpR2csZ2AtLGvsRWXw", "review_count": 1873, "categories": [{"alias": "gastropubs", "title": "Gastropubs"}, {"alias": "british", "title": "British"}], "rating": 4.0, "coordinates": {"latitude": 39.951004, "longitude": -75.170636}, "transactions": ["delivery"], "price": "$$", "location": {"address1": "124 S 18th St", "address2": "", "address3": "", "city": "Philadelphia", "zip_code": "19103", "country": "US", "state": "PA", "display_address": ["124 S 18th St", "Philadelphia, PA 19103"]}, "phone": "+12155582500", "display_phone": "(215) 558-2500", "distance": 312.6758272785155}, {"id": "ntiIq1FNqduOyyowMFGh5A", "alias": "nan-zhou-hand-drawn-noodle-house-philadelphia", "name": "Nan Zhou Hand Drawn Noodle House", "image_url": "https://s3-media4.fl.yelpcdn.com/bphoto/ebtCnrRXCcACO2cDrR1i5A/o.jpg", "is_closed": false, "url": "https://www.yelp.com/biz/nan-zhou-hand-drawn-noodle-house-philadelphia?adjust_creative=TpLShpR2csZ2AtLGvsRWXw&utm_campaign=yelp_api_v3&utm_medium=api_v3_business_search&utm_source=TpLShpR2csZ2AtLGvsRWXw", "review_count": 1680, "categories": [{"alias": "chinese", "title": "Chinese"}, {"alias": "noodles", "title": "Noodles"}], "rating": 4.0, "coordinates": {"latitude": 39.9554005670665, "longitude": -75.1569010985796}, "transactions": ["delivery", "pickup"], "price": "$", "location": {"address1": "1022 Race St", "address2": "", "address3": "", "city": "Philadelphia", "zip_code": "19107", "country": "US", "state": "PA", "display_address": ["1022 Race St", "Philadelphia, PA 19107"]}, "phone": "+12159231550", "display_phone": "(215) 923-1550", "distance": 1232.3121255489739}, {"id": "j-qtdD55OLfSqfsWuQTDJg", "alias": "parc-philadelphia-2", "name": "Parc", "image_url": "https://s3-media3.fl.yelpcdn.com/bphoto/HiiAgUDE7LV-42ET0-QJaA/o.jpg", "is_closed": false, "url": "https://www.yelp.com/biz/parc-philadelphia-2?adjust_creative=TpLShpR2csZ2AtLGvsRWXw&utm_campaign=yelp_api_v3&utm_medium=api_v3_business_search&utm_source=TpLShpR2csZ2AtLGvsRWXw", "review_count": 1941, "categories": [{"alias": "french", "title": "French"}, {"alias": "newamerican", "title": "American (New)"}, {"alias": "cafes", "title": "Cafes"}], "rating": 4.0, "coordinates": {"latitude": 39.9491221506034, "longitude": -75.1707489788532}, "transactions": ["delivery"], "price": "$$$", "location": {"address1": "227 S 18th St", "address2": "", "address3": "", "city": "Philadelphia", "zip_code": "19103", "country": "US", "state": "PA", "display_address": ["227 S 18th St", "Philadelphia, PA 19103"]}, "phone": "+12155452262", "display_phone": "(215) 545-2262", "distance": 519.6088127146583}, {"id": "IWHdx0NhDKADkGOgXgOFKQ", "alias": "tommy-dinics-philadelphia", "name": "Tommy DiNic's", "image_url": "https://s3-media1.fl.yelpcdn.com/bphoto/l6_fiP8WhuGlMRNB0xx_kg/o.jpg", "is_closed": false, "url": "https://www.yelp.com/biz/tommy-dinics-philadelphia?adjust_creative=TpLShpR2csZ2AtLGvsRWXw&utm_campaign=yelp_api_v3&utm_medium=api_v3_business_search&utm_source=TpLShpR2csZ2AtLGvsRWXw", "review_count": 1825, "categories": [{"alias": "tradamerican", "title": "American (Traditional)"}, {"alias": "sandwiches", "title": "Sandwiches"}], "rating": 4.0, "coordinates": {"latitude": 39.953478370008, "longitude": -75.1593960603483}, "transactions": [], "price": "$", "location": {"address1": "1136 Arch St", "address2": "", "address3": "Reading Terminal Market", "city": "Philadelphia", "zip_code": "19147", "country": "US", "state": "PA", "display_address": ["1136 Arch St", "Reading Terminal Market", "Philadelphia, PA 19147"]}, "phone": "+12159236175", "display_phone": "(215) 923-6175", "distance": 1007.0184192543352}, {"id": "9PZxjhTIU7OgPIzuGi89Ew", "alias": "el-vez-philadelphia", "name": "El Vez", "image_url": "https://s3-media1.fl.yelpcdn.com/bphoto/aYu_j7USJUNkbQxfVVPwtQ/o.jpg", "is_closed": false, "url": "https://www.yelp.com/biz/el-vez-philadelphia?adjust_creative=TpLShpR2csZ2AtLGvsRWXw&utm_campaign=yelp_api_v3&utm_medium=api_v3_business_search&utm_source=TpLShpR2csZ2AtLGvsRWXw", "review_count": 2453, "categories": [{"alias": "mexican", "title": "Mexican"}, {"alias": "breakfast_brunch", "title": "Breakfast & Brunch"}], "rating": 4.0, "coordinates": {"latitude": 39.9497020026001, "longitude": -75.1617702841759}, "transactions": ["delivery"], "price": "$$", "location": {"address1": "121 S 13th St", "address2": "", "address3": "", "city": "Philadelphia", "zip_code": "19107", "country": "US", "state": "PA", "display_address": ["121 S 13th St", "Philadelphia, PA 19107"]}, "phone": "+12159289800", "display_phone": "(215) 928-9800", "distance": 923.2589856593123}, {"id": "ZF0tt7hn6WK3-aNWgtLcFA", "alias": "eastern-state-penitentiary-historic-site-philadelphia", "name": "Eastern State Penitentiary Historic Site", "image_url": "https://s3-media3.fl.yelpcdn.com/bphoto/7ad63mIg9REIvYK56u1vPA/o.jpg", "is_closed": false, "url": "https://www.yelp.com/biz/eastern-state-penitentiary-historic-site-philadelphia?adjust_creative=TpLShpR2csZ2AtLGvsRWXw&utm_campaign=yelp_api_v3&utm_medium=api_v3_business_search&utm_source=TpLShpR2csZ2AtLGvsRWXw", "review_count": 642, "categories": [{"alias": "landmarks", "title": "Landmarks & Historical Buildings"}], "rating": 4.5, "coordinates": {"latitude": 39.968384, "longitude": -75.172483}, "transactions": [], "location": {"address1": "2027 Fairmount Ave", "address2": "", "address3": "", "city": "Philadelphia", "zip_code": "19130", "country": "US", "state": "PA", "display_address": ["2027 Fairmount Ave", "Philadelphia, PA 19130"]}, "phone": "+12152363300", "display_phone": "(215) 236-3300", "distance": 1622.564738836262}, {"id": "OdIBX09glfXNVSyd0RnIeg", "alias": "monks-cafe-philadelphia-4", "name": "Monk's Cafe", "image_url": "https://s3-media1.fl.yelpcdn.com/bphoto/_4SWto8dM1xhDYMY6LySiQ/o.jpg", "is_closed": false, "url": "https://www.yelp.com/biz/monks-cafe-philadelphia-4?adjust_creative=TpLShpR2csZ2AtLGvsRWXw&utm_campaign=yelp_api_v3&utm_medium=api_v3_business_search&utm_source=TpLShpR2csZ2AtLGvsRWXw", "review_count": 1970, "categories": [{"alias": "pubs", "title": "Pubs"}, {"alias": "belgian", "title": "Belgian"}, {"alias": "gastropubs", "title": "Gastropubs"}], "rating": 4.0, "coordinates": {"latitude": 39.94771, "longitude": -75.16827}, "transactions": [], "price": "$$", "location": {"address1": "264 S 16th St", "address2": "", "address3": "", "city": "Philadelphia", "zip_code": "19102", "country": "US", "state": "PA", "display_address": ["264 S 16th St", "Philadelphia, PA 19102"]}, "phone": "+12155457005", "display_phone": "(215) 545-7005", "distance": 725.3549949551436}, {"id": "mtvT7uRey3F395STFRM1Tg", "alias": "vernick-food-and-drink-philadelphia", "name": "Vernick Food & Drink", "image_url": "https://s3-media1.fl.yelpcdn.com/bphoto/wew5Wd633863Iik37EsYlQ/o.jpg", "is_closed": false, "url": "https://www.yelp.com/biz/vernick-food-and-drink-philadelphia?adjust_creative=TpLShpR2csZ2AtLGvsRWXw&utm_campaign=yelp_api_v3&utm_medium=api_v3_business_search&utm_source=TpLShpR2csZ2AtLGvsRWXw", "review_count": 771, "categories": [{"alias": "newamerican", "title": "American (New)"}], "rating": 4.5, "coordinates": {"latitude": 39.950901, "longitude": -75.17485}, "transactions": [], "price": "$$$", "location": {"address1": "2031 Walnut St", "address2": "", "address3": "", "city": "Philadelphia", "zip_code": "19103", "country": "US", "state": "PA", "display_address": ["2031 Walnut St", "Philadelphia, PA 19103"]}, "phone": "+12676396644", "display_phone": "(267) 639-6644", "distance": 457.60141267273315}, {"id": "LM54ufrINJWoTN5imV8Etw", "alias": "johns-roast-pork-philadelphia", "name": "John's Roast Pork", "image_url": "https://s3-media1.fl.yelpcdn.com/bphoto/EpWtxVlzavsgEK4zd0T8cQ/o.jpg", "is_closed": false, "url": "https://www.yelp.com/biz/johns-roast-pork-philadelphia?adjust_creative=TpLShpR2csZ2AtLGvsRWXw&utm_campaign=yelp_api_v3&utm_medium=api_v3_business_search&utm_source=TpLShpR2csZ2AtLGvsRWXw", "review_count": 1060, "categories": [{"alias": "sandwiches", "title": "Sandwiches"}, {"alias": "cheesesteaks", "title": "Cheesesteaks"}], "rating": 4.5, "coordinates": {"latitude": 39.9210273851256, "longitude": -75.14502844377}, "transactions": [], "price": "$", "location": {"address1": "14 E Snyder Ave", "address2": "", "address3": "", "city": "Philadelphia", "zip_code": "19148", "country": "US", "state": "PA", "display_address": ["14 E Snyder Ave", "Philadelphia, PA 19148"]}, "phone": "+12154631951", "display_phone": "(215) 463-1951", "distance": 4271.479108712093}, {"id": "RQAF6a0akMiot5lZZnMNNw", "alias": "dalessandros-steaks-and-hoagies-philadelphia", "name": "Dalessandro's Steaks and Hoagies", "image_url": "https://s3-media3.fl.yelpcdn.com/bphoto/SrPl9KymbMxNSMVGofzWmw/o.jpg", "is_closed": false, "url": "https://www.yelp.com/biz/dalessandros-steaks-and-hoagies-philadelphia?adjust_creative=TpLShpR2csZ2AtLGvsRWXw&utm_campaign=yelp_api_v3&utm_medium=api_v3_business_search&utm_source=TpLShpR2csZ2AtLGvsRWXw", "review_count": 1395, "categories": [{"alias": "sandwiches", "title": "Sandwiches"}, {"alias": "cheesesteaks", "title": "Cheesesteaks"}], "rating": 4.5, "coordinates": {"latitude": 40.02951, "longitude": -75.20599}, "transactions": [], "price": "$", "location": {"address1": "600 Wendover St", "address2": "", "address3": "", "city": "Philadelphia", "zip_code": "19128", "country": "US", "state": "PA", "display_address": ["600 Wendover St", "Philadelphia, PA 19128"]}, "phone": "+12154825407", "display_phone": "(215) 482-5407", "distance": 8927.668036977277}, {"id": "Q-prSTdggNlxAEFV88BZOw", "alias": "tria-cafe-wash-west-philadelphia-2", "name": "Tria Cafe Wash West", "image_url": "https://s3-media4.fl.yelpcdn.com/bphoto/KBqWbFTsmXGb8npIRnp-DA/o.jpg", "is_closed": false, "url": "https://www.yelp.com/biz/tria-cafe-wash-west-philadelphia-2?adjust_creative=TpLShpR2csZ2AtLGvsRWXw&utm_campaign=yelp_api_v3&utm_medium=api_v3_business_search&utm_source=TpLShpR2csZ2AtLGvsRWXw", "review_count": 690, "categories": [{"alias": "wine_bars", "title": "Wine Bars"}, {"alias": "modern_european", "title": "Modern European"}], "rating": 4.5, "coordinates": {"latitude": 39.9466238, "longitude": -75.1609139}, "transactions": [], "price": "$$", "location": {"address1": "1137 Spruce St", "address2": "", "address3": "", "city": "Philadelphia", "zip_code": "19107", "country": "US", "state": "PA", "display_address": ["1137 Spruce St", "Philadelphia, PA 19107"]}, "phone": "+12156299200", "display_phone": "(215) 629-9200", "distance": 1184.4396148613894}, {"id": "cXSyVvOr9YRN9diDkaWs0Q", "alias": "honeys-sit-n-eat-philadelphia", "name": "Honey's Sit-N-Eat", "image_url": "https://s3-media1.fl.yelpcdn.com/bphoto/XG77mRleu53Tb4kE0n2HSQ/o.jpg", "is_closed": false, "url": "https://www.yelp.com/biz/honeys-sit-n-eat-philadelphia?adjust_creative=TpLShpR2csZ2AtLGvsRWXw&utm_campaign=yelp_api_v3&utm_medium=api_v3_business_search&utm_source=TpLShpR2csZ2AtLGvsRWXw", "review_count": 1215, "categories": [{"alias": "southern", "title": "Southern"}, {"alias": "tradamerican", "title": "American (Traditional)"}], "rating": 4.0, "coordinates": {"latitude": 39.9639701843262, "longitude": -75.1445007324219}, "transactions": [], "price": "$$", "location": {"address1": "800 N 4th St", "address2": null, "address3": "", "city": "Philadelphia", "zip_code": "19123", "country": "US", "state": "PA", "display_address": ["800 N 4th St", "Philadelphia, PA 19123"]}, "phone": "+12159251150", "display_phone": "(215) 925-1150", "distance": 2540.430918203486}, {"id": "30cpm1uq6xcQCmN6JTrB8w", "alias": "lukes-lobster-rittenhouse-philadelphia", "name": "Luke's Lobster Rittenhouse", "image_url": "https://s3-media1.fl.yelpcdn.com/bphoto/YaFhg25zsoV__ohzadPouQ/o.jpg", "is_closed": false, "url": "https://www.yelp.com/biz/lukes-lobster-rittenhouse-philadelphia?adjust_creative=TpLShpR2csZ2AtLGvsRWXw&utm_campaign=yelp_api_v3&utm_medium=api_v3_business_search&utm_source=TpLShpR2csZ2AtLGvsRWXw", "review_count": 881, "categories": [{"alias": "seafood", "title": "Seafood"}], "rating": 4.5, "coordinates": {"latitude": 39.950512, "longitude": -75.169182}, "transactions": ["delivery", "pickup"], "price": "$$", "location": {"address1": "130 S 17th St", "address2": "", "address3": "", "city": "Philadelphia", "zip_code": "19103", "country": "US", "state": "PA", "display_address": ["130 S 17th St", "Philadelphia, PA 19103"]}, "phone": "+12155641415", "display_phone": "(215) 564-1415", "distance": 401.7566250277787}], [{"id": "u4sTiCzVeIHZY8OlaL346Q", "alias": "gaucho-parrilla-argentina-pittsburgh", "name": "Gaucho Parrilla Argentina", "image_url": "https://s3-media4.fl.yelpcdn.com/bphoto/OrC5JDiJz-XUtkTge9zjHA/o.jpg", "is_closed": false, "url": "https://www.yelp.com/biz/gaucho-parrilla-argentina-pittsburgh?adjust_creative=TpLShpR2csZ2AtLGvsRWXw&utm_campaign=yelp_api_v3&utm_medium=api_v3_business_search&utm_source=TpLShpR2csZ2AtLGvsRWXw", "review_count": 1433, "categories": [{"alias": "argentine", "title": "Argentine"}], "rating": 4.5, "coordinates": {"latitude": 40.449043, "longitude": -79.987573}, "transactions": [], "price": "$$", "location": {"address1": "1601 Penn Ave", "address2": "", "address3": "", "city": "Pittsburgh", "zip_code": "15222", "country": "US", "state": "PA", "display_address": ["1601 Penn Ave", "Pittsburgh, PA 15222"]}, "phone": "+14127096622", "display_phone": "(412) 709-6622", "distance": 866.3875049364033}, {"id": "JLbgvGM4FXh9zNP4O5ZWjQ", "alias": "meat-and-potatoes-pittsburgh", "name": "Meat & Potatoes", "image_url": "https://s3-media4.fl.yelpcdn.com/bphoto/QK6ldlc_VpZMgY8bcraNRQ/o.jpg", "is_closed": false, "url": "https://www.yelp.com/biz/meat-and-potatoes-pittsburgh?adjust_creative=TpLShpR2csZ2AtLGvsRWXw&utm_campaign=yelp_api_v3&utm_medium=api_v3_business_search&utm_source=TpLShpR2csZ2AtLGvsRWXw", "review_count": 1594, "categories": [{"alias": "gastropubs", "title": "Gastropubs"}], "rating": 4.0, "coordinates": {"latitude": 40.4431445862832, "longitude": -80.0011037907791}, "transactions": ["restaurant_reservation"], "price": "$$$", "location": {"address1": "649 Penn Ave", "address2": "", "address3": "", "city": "Pittsburgh", "zip_code": "15222", "country": "US", "state": "PA", "display_address": ["649 Penn Ave", "Pittsburgh, PA 15222"]}, "phone": "+14123257007", "display_phone": "(412) 325-7007", "distance": 1870.1784637351072}, {"id": "woXlprCuowrLJswWere3TQ", "alias": "täkō-pittsburgh", "name": "täkō", "image_url": "https://s3-media4.fl.yelpcdn.com/bphoto/K4igSpz7pBl6v4cteqzrzA/o.jpg", "is_closed": false, "url": "https://www.yelp.com/biz/t%C3%A4k%C5%8D-pittsburgh?adjust_creative=TpLShpR2csZ2AtLGvsRWXw&utm_campaign=yelp_api_v3&utm_medium=api_v3_business_search&utm_source=TpLShpR2csZ2AtLGvsRWXw", "review_count": 928, "categories": [{"alias": "newamerican", "title": "American (New)"}, {"alias": "mexican", "title": "Mexican"}], "rating": 4.5, "coordinates": {"latitude": 40.4422285652929, "longitude": -80.0019846968895}, "transactions": ["restaurant_reservation"], "price": "$$", "location": {"address1": "214 6th St", "address2": "", "address3": "", "city": "Pittsburgh", "zip_code": "15222", "country": "US", "state": "PA", "display_address": ["214 6th St", "Pittsburgh, PA 15222"]}, "phone": "+14124718256", "display_phone": "(412) 471-8256", "distance": 1955.9825424877417}, {"id": "dLc1d1zwd1Teu2QED5TmlA", "alias": "noodlehead-pittsburgh", "name": "Noodlehead", "image_url": "https://s3-media1.fl.yelpcdn.com/bphoto/yYVAt2SYFsNa772EM61PXg/o.jpg", "is_closed": false, "url": "https://www.yelp.com/biz/noodlehead-pittsburgh?adjust_creative=TpLShpR2csZ2AtLGvsRWXw&utm_campaign=yelp_api_v3&utm_medium=api_v3_business_search&utm_source=TpLShpR2csZ2AtLGvsRWXw", "review_count": 933, "categories": [{"alias": "thai", "title": "Thai"}, {"alias": "noodles", "title": "Noodles"}], "rating": 4.5, "coordinates": {"latitude": 40.457748, "longitude": -79.925491}, "transactions": [], "price": "$", "location": {"address1": "242 S Highland Ave", "address2": "", "address3": "", "city": "Pittsburgh", "zip_code": "15206", "country": "US", "state": "PA", "display_address": ["242 S Highland Ave", "Pittsburgh, PA 15206"]}, "phone": "", "display_phone": "", "distance": 4762.760098272751}, {"id": "oS96aJIHFWcFAlGHKKXjaw", "alias": "la-gourmandine-bakery-and-pastry-shop-pittsburgh", "name": "La Gourmandine Bakery & Pastry Shop", "image_url": "https://s3-media2.fl.yelpcdn.com/bphoto/YzqAKdpRPCFfS7PEUNYCAA/o.jpg", "is_closed": false, "url": "https://www.yelp.com/biz/la-gourmandine-bakery-and-pastry-shop-pittsburgh?adjust_creative=TpLShpR2csZ2AtLGvsRWXw&utm_campaign=yelp_api_v3&utm_medium=api_v3_business_search&utm_source=TpLShpR2csZ2AtLGvsRWXw", "review_count": 378, "categories": [{"alias": "bakeries", "title": "Bakeries"}, {"alias": "french", "title": "French"}], "rating": 4.5, "coordinates": {"latitude": 40.47312, "longitude": -79.95886}, "transactions": [], "price": "$", "location": {"address1": "4605 Butler St", "address2": "", "address3": "", "city": "Pittsburgh", "zip_code": "15201", "country": "US", "state": "PA", "display_address": ["4605 Butler St", "Pittsburgh, PA 15201"]}, "phone": "+14126822210", "display_phone": "(412) 682-2210", "distance": 3594.245388573113}, {"id": "SmkYLXEYhzwUZdS6TAevHg", "alias": "butcher-and-the-rye-pittsburgh", "name": "Butcher and the Rye", "image_url": "https://s3-media1.fl.yelpcdn.com/bphoto/ridIHrro6fStsoIr6zXqGw/o.jpg", "is_closed": false, "url": "https://www.yelp.com/biz/butcher-and-the-rye-pittsburgh?adjust_creative=TpLShpR2csZ2AtLGvsRWXw&utm_campaign=yelp_api_v3&utm_medium=api_v3_business_search&utm_source=TpLShpR2csZ2AtLGvsRWXw", "review_count": 738, "categories": [{"alias": "newamerican", "title": "American (New)"}, {"alias": "butcher", "title": "Butcher"}, {"alias": "cocktailbars", "title": "Cocktail Bars"}], "rating": 4.5, "coordinates": {"latitude": 40.442334, "longitude": -80.002066}, "transactions": ["restaurant_reservation"], "price": "$$$", "location": {"address1": "212 6th St", "address2": "", "address3": "", "city": "Pittsburgh", "zip_code": "15222", "country": "US", "state": "PA", "display_address": ["212 6th St", "Pittsburgh, PA 15222"]}, "phone": "+14123912752", "display_phone": "(412) 391-2752", "distance": 1961.204843931838}, {"id": "d2ZQRjuizstCTnicysmpMQ", "alias": "eleven-pittsburgh", "name": "Eleven", "image_url": "https://s3-media2.fl.yelpcdn.com/bphoto/CK1bpRSgCA18LTzs4TPVug/o.jpg", "is_closed": false, "url": "https://www.yelp.com/biz/eleven-pittsburgh?adjust_creative=TpLShpR2csZ2AtLGvsRWXw&utm_campaign=yelp_api_v3&utm_medium=api_v3_business_search&utm_source=TpLShpR2csZ2AtLGvsRWXw", "review_count": 603, "categories": [{"alias": "newamerican", "title": "American (New)"}], "rating": 4.0, "coordinates": {"latitude": 40.44602, "longitude": -79.99325}, "transactions": [], "price": "$$$", "location": {"address1": "1150 Smallman St", "address2": null, "address3": "", "city": "Pittsburgh", "zip_code": "15222", "country": "US", "state": "PA", "display_address": ["1150 Smallman St", "Pittsburgh, PA 15222"]}, "phone": "+14122015656", "display_phone": "(412) 201-5656", "distance": 1227.8728781746383}, {"id": "j83FLfnjvSHw-vrCNHuTCg", "alias": "phipps-conservatory-and-botanical-gardens-pittsburgh", "name": "Phipps Conservatory and Botanical Gardens", "image_url": "https://s3-media3.fl.yelpcdn.com/bphoto/0o7I3Fi_yjL1_a3BJn1BGg/o.jpg", "is_closed": false, "url": "https://www.yelp.com/biz/phipps-conservatory-and-botanical-gardens-pittsburgh?adjust_creative=TpLShpR2csZ2AtLGvsRWXw&utm_campaign=yelp_api_v3&utm_medium=api_v3_business_search&utm_source=TpLShpR2csZ2AtLGvsRWXw", "review_count": 252, "categories": [{"alias": "gardens", "title": "Botanical Gardens"}, {"alias": "parks", "title": "Parks"}], "rating": 4.5, "coordinates": {"latitude": 40.439248, "longitude": -79.947347}, "transactions": [], "location": {"address1": "1 Schenley Park", "address2": null, "address3": "", "city": "Pittsburgh", "zip_code": "15213", "country": "US", "state": "PA", "display_address": ["1 Schenley Park", "Pittsburgh, PA 15213"]}, "phone": "+14126226914", "display_phone": "(412) 622-6914", "distance": 2753.666478253465}, {"id": "S8urdN6ACnRQUm-7o9An8w", "alias": "altius-pittsburgh", "name": "Altius", "image_url": "https://s3-media4.fl.yelpcdn.com/bphoto/z5FlFKAbvMTbsjDjcTnRyw/o.jpg", "is_closed": false, "url": "https://www.yelp.com/biz/altius-pittsburgh?adjust_creative=TpLShpR2csZ2AtLGvsRWXw&utm_campaign=yelp_api_v3&utm_medium=api_v3_business_search&utm_source=TpLShpR2csZ2AtLGvsRWXw", "review_count": 437, "categories": [{"alias": "newamerican", "title": "American (New)"}, {"alias": "venues", "title": "Venues & Event Spaces"}, {"alias": "bars", "title": "Bars"}], "rating": 4.5, "coordinates": {"latitude": 40.438556, "longitude": -80.019299}, "transactions": [], "price": "$$$", "location": {"address1": "1230 Grandview Ave", "address2": "", "address3": "", "city": "Pittsburgh", "zip_code": "15211", "country": "US", "state": "PA", "display_address": ["1230 Grandview Ave", "Pittsburgh, PA 15211"]}, "phone": "+14129044442", "display_phone": "(412) 904-4442", "distance": 3469.6409376954034}, {"id": "MKYcOZSpMwJK7uwacK13EA", "alias": "smallman-galley-pittsburgh-2", "name": "Smallman Galley", "image_url": "https://s3-media2.fl.yelpcdn.com/bphoto/mWSWjIQ5EkrDyCIxBIrK0g/o.jpg", "is_closed": false, "url": "https://www.yelp.com/biz/smallman-galley-pittsburgh-2?adjust_creative=TpLShpR2csZ2AtLGvsRWXw&utm_campaign=yelp_api_v3&utm_medium=api_v3_business_search&utm_source=TpLShpR2csZ2AtLGvsRWXw", "review_count": 405, "categories": [{"alias": "tradamerican", "title": "American (Traditional)"}, {"alias": "bars", "title": "Bars"}], "rating": 4.5, "coordinates": {"latitude": 40.4521777, "longitude": -79.9837408}, "transactions": [], "price": "$$", "location": {"address1": "54 21st St", "address2": "", "address3": "", "city": "Pittsburgh", "zip_code": "15222", "country": "US", "state": "PA", "display_address": ["54 21st St", "Pittsburgh, PA 15222"]}, "phone": "+14125176100", "display_phone": "(412) 517-6100", "distance": 922.3237930279802}, {"id": "xcmmTXhuMx2fZF2Bt69F4w", "alias": "point-brugge-café-pittsburgh-2", "name": "Point Brugge Café", "image_url": "https://s3-media2.fl.yelpcdn.com/bphoto/zLGyvEiAZrjjK_40CvbpVg/o.jpg", "is_closed": false, "url": "https://www.yelp.com/biz/point-brugge-caf%C3%A9-pittsburgh-2?adjust_creative=TpLShpR2csZ2AtLGvsRWXw&utm_campaign=yelp_api_v3&utm_medium=api_v3_business_search&utm_source=TpLShpR2csZ2AtLGvsRWXw", "review_count": 527, "categories": [{"alias": "belgian", "title": "Belgian"}], "rating": 4.5, "coordinates": {"latitude": 40.45003, "longitude": -79.91385}, "transactions": [], "price": "$$", "location": {"address1": "401 Hastings St", "address2": "", "address3": "", "city": "Pittsburgh", "zip_code": "15206", "country": "US", "state": "PA", "display_address": ["401 Hastings St", "Pittsburgh, PA 15206"]}, "phone": "+14124413334", "display_phone": "(412) 441-3334", "distance": 5549.995029587005}, {"id": "NoF90rswXBHESSyDaWeKKA", "alias": "proper-brick-oven-and-tap-room-pittsburgh", "name": "Proper Brick Oven & Tap Room", "image_url": "https://s3-media4.fl.yelpcdn.com/bphoto/PhJFDxbTf_41ZDugOhi5CQ/o.jpg", "is_closed": false, "url": "https://www.yelp.com/biz/proper-brick-oven-and-tap-room-pittsburgh?adjust_creative=TpLShpR2csZ2AtLGvsRWXw&utm_campaign=yelp_api_v3&utm_medium=api_v3_business_search&utm_source=TpLShpR2csZ2AtLGvsRWXw", "review_count": 509, "categories": [{"alias": "italian", "title": "Italian"}, {"alias": "pizza", "title": "Pizza"}, {"alias": "bars", "title": "Bars"}], "rating": 4.5, "coordinates": {"latitude": 40.4435995, "longitude": -80.0003448}, "transactions": [], "price": "$$", "location": {"address1": "139 7th St", "address2": "", "address3": "", "city": "Pittsburgh", "zip_code": "15222", "country": "US", "state": "PA", "display_address": ["139 7th St", "Pittsburgh, PA 15222"]}, "phone": "+14122815700", "display_phone": "(412) 281-5700", "distance": 1802.1601737164362}, {"id": "sc__kdcFV4IcNTfBx1707w", "alias": "p-and-gs-pamelas-diner-pittsburgh-3", "name": "P&G's Pamela's Diner", "image_url": "https://s3-media1.fl.yelpcdn.com/bphoto/Hqj9o1rh91Dgjg77r3tXyQ/o.jpg", "is_closed": false, "url": "https://www.yelp.com/biz/p-and-gs-pamelas-diner-pittsburgh-3?adjust_creative=TpLShpR2csZ2AtLGvsRWXw&utm_campaign=yelp_api_v3&utm_medium=api_v3_business_search&utm_source=TpLShpR2csZ2AtLGvsRWXw", "review_count": 477, "categories": [{"alias": "diners", "title": "Diners"}, {"alias": "breakfast_brunch", "title": "Breakfast & Brunch"}, {"alias": "sandwiches", "title": "Sandwiches"}], "rating": 4.5, "coordinates": {"latitude": 40.45199, "longitude": -79.98366}, "transactions": [], "price": "$", "location": {"address1": "60 21st St", "address2": "", "address3": "", "city": "Pittsburgh", "zip_code": "15222", "country": "US", "state": "PA", "display_address": ["60 21st St", "Pittsburgh, PA 15222"]}, "phone": "+14122816366", "display_phone": "(412) 281-6366", "distance": 898.5700446645792}, {"id": "LQFmktF43j2NPncKdNd9mg", "alias": "fat-heads-saloon-pittsburgh", "name": "Fat Heads Saloon", "image_url": "https://s3-media4.fl.yelpcdn.com/bphoto/0WEM3KzBtwBq21232FDDwQ/o.jpg", "is_closed": false, "url": "https://www.yelp.com/biz/fat-heads-saloon-pittsburgh?adjust_creative=TpLShpR2csZ2AtLGvsRWXw&utm_campaign=yelp_api_v3&utm_medium=api_v3_business_search&utm_source=TpLShpR2csZ2AtLGvsRWXw", "review_count": 678, "categories": [{"alias": "tradamerican", "title": "American (Traditional)"}], "rating": 4.0, "coordinates": {"latitude": 40.42897, "longitude": -79.98022}, "transactions": ["pickup", "delivery"], "price": "$$", "location": {"address1": "1805 E Carson St", "address2": "", "address3": "", "city": "Pittsburgh", "zip_code": "15203", "country": "US", "state": "PA", "display_address": ["1805 E Carson St", "Pittsburgh, PA 15203"]}, "phone": "+14124317433", "display_phone": "(412) 431-7433", "distance": 1748.9657723104267}, {"id": "Cf0iV72DTqR0ggBje2d0sg", "alias": "espresso-a-mano-pittsburgh", "name": "Espresso A Mano", "image_url": "https://s3-media4.fl.yelpcdn.com/bphoto/Dgp7oGwzhm5OsT7DAoby9w/o.jpg", "is_closed": false, "url": "https://www.yelp.com/biz/espresso-a-mano-pittsburgh?adjust_creative=TpLShpR2csZ2AtLGvsRWXw&utm_campaign=yelp_api_v3&utm_medium=api_v3_business_search&utm_source=TpLShpR2csZ2AtLGvsRWXw", "review_count": 295, "categories": [{"alias": "coffee", "title": "Coffee & Tea"}], "rating": 4.5, "coordinates": {"latitude": 40.46608, "longitude": -79.96509}, "transactions": [], "price": "$", "location": {"address1": "3623 Butler St", "address2": "", "address3": "", "city": "Pittsburgh", "zip_code": "15201", "country": "US", "state": "PA", "display_address": ["3623 Butler St", "Pittsburgh, PA 15201"]}, "phone": "+14129181864", "display_phone": "(412) 918-1864", "distance": 2658.011182935825}, {"id": "Voeq7aGDmCGMjE_SQiHwRA", "alias": "bakersfield-pittsburgh-8", "name": "Bakersfield", "image_url": "https://s3-media2.fl.yelpcdn.com/bphoto/sbC2qU7p-2bDkUvNTn3-UQ/o.jpg", "is_closed": false, "url": "https://www.yelp.com/biz/bakersfield-pittsburgh-8?adjust_creative=TpLShpR2csZ2AtLGvsRWXw&utm_campaign=yelp_api_v3&utm_medium=api_v3_business_search&utm_source=TpLShpR2csZ2AtLGvsRWXw", "review_count": 542, "categories": [{"alias": "bars", "title": "Bars"}, {"alias": "tacos", "title": "Tacos"}], "rating": 4.5, "coordinates": {"latitude": 40.444065, "longitude": -79.996632}, "transactions": [], "price": "$$", "location": {"address1": "940 Penn Ave", "address2": "", "address3": "", "city": "Pittsburgh", "zip_code": "15222", "country": "US", "state": "PA", "display_address": ["940 Penn Ave", "Pittsburgh, PA 15222"]}, "phone": "+14125865024", "display_phone": "(412) 586-5024", "distance": 1485.5438742047647}, {"id": "Ul6JwluSTm12PVDIqnNaTg", "alias": "kaya-pittsburgh", "name": "Kaya", "image_url": "https://s3-media2.fl.yelpcdn.com/bphoto/xM2xbjf19Cw--V_gp9kSow/o.jpg", "is_closed": false, "url": "https://www.yelp.com/biz/kaya-pittsburgh?adjust_creative=TpLShpR2csZ2AtLGvsRWXw&utm_campaign=yelp_api_v3&utm_medium=api_v3_business_search&utm_source=TpLShpR2csZ2AtLGvsRWXw", "review_count": 572, "categories": [{"alias": "caribbean", "title": "Caribbean"}, {"alias": "bars", "title": "Bars"}], "rating": 4.0, "coordinates": {"latitude": 40.45167, "longitude": -79.98424}, "transactions": ["delivery"], "price": "$$", "location": {"address1": "2000 Smallman St", "address2": "", "address3": "", "city": "Pittsburgh", "zip_code": "15222", "country": "US", "state": "PA", "display_address": ["2000 Smallman St", "Pittsburgh, PA 15222"]}, "phone": "+14122616565", "display_phone": "(412) 261-6565", "distance": 899.684278037508}, {"id": "bdNyoXY4yJ99derJRqhP3Q", "alias": "cure-pittsburgh", "name": "Cure", "image_url": "https://s3-media1.fl.yelpcdn.com/bphoto/99lbCxywOg-cllfl-5PxeA/o.jpg", "is_closed": false, "url": "https://www.yelp.com/biz/cure-pittsburgh?adjust_creative=TpLShpR2csZ2AtLGvsRWXw&utm_campaign=yelp_api_v3&utm_medium=api_v3_business_search&utm_source=TpLShpR2csZ2AtLGvsRWXw", "review_count": 400, "categories": [{"alias": "newamerican", "title": "American (New)"}, {"alias": "mediterranean", "title": "Mediterranean"}], "rating": 4.0, "coordinates": {"latitude": 40.48269, "longitude": -79.95116}, "transactions": [], "price": "$$$", "location": {"address1": "5336 Butler St", "address2": "", "address3": "", "city": "Pittsburgh", "zip_code": "15201", "country": "US", "state": "PA", "display_address": ["5336 Butler St", "Pittsburgh, PA 15201"]}, "phone": "+14122522595", "display_phone": "(412) 252-2595", "distance": 4842.055737728476}, {"id": "0PCBt3JKD6IooicImKNBzA", "alias": "nickys-thai-kitchen-pittsburgh-4", "name": "Nicky's Thai Kitchen", "image_url": "https://s3-media4.fl.yelpcdn.com/bphoto/qfLdh-2jeXEDUeJiDILBgA/o.jpg", "is_closed": false, "url": "https://www.yelp.com/biz/nickys-thai-kitchen-pittsburgh-4?adjust_creative=TpLShpR2csZ2AtLGvsRWXw&utm_campaign=yelp_api_v3&utm_medium=api_v3_business_search&utm_source=TpLShpR2csZ2AtLGvsRWXw", "review_count": 534, "categories": [{"alias": "thai", "title": "Thai"}], "rating": 4.0, "coordinates": {"latitude": 40.443983, "longitude": -79.998256}, "transactions": [], "price": "$$", "location": {"address1": "903 Penn Ave", "address2": "", "address3": "", "city": "Pittsburgh", "zip_code": "15222", "country": "US", "state": "PA", "display_address": ["903 Penn Ave", "Pittsburgh, PA 15222"]}, "phone": "+14124718424", "display_phone": "(412) 471-8424", "distance": 1623.2483284428536}, {"id": "sMzNLdhJZGzYirIWt-fMAg", "alias": "sienna-mercato-pittsburgh", "name": "Sienna Mercato", "image_url": "https://s3-media3.fl.yelpcdn.com/bphoto/x8MXIECnJ8IfTW4xf-EAhQ/o.jpg", "is_closed": false, "url": "https://www.yelp.com/biz/sienna-mercato-pittsburgh?adjust_creative=TpLShpR2csZ2AtLGvsRWXw&utm_campaign=yelp_api_v3&utm_medium=api_v3_business_search&utm_source=TpLShpR2csZ2AtLGvsRWXw", "review_count": 677, "categories": [{"alias": "italian", "title": "Italian"}, {"alias": "pizza", "title": "Pizza"}, {"alias": "bars", "title": "Bars"}], "rating": 4.0, "coordinates": {"latitude": 40.4439496, "longitude": -79.9964366}, "transactions": [], "price": "$$", "location": {"address1": "942 Penn Ave", "address2": "", "address3": "", "city": "Pittsburgh", "zip_code": "15222", "country": "US", "state": "PA", "display_address": ["942 Penn Ave", "Pittsburgh, PA 15222"]}, "phone": "+14122812810", "display_phone": "(412) 281-2810", "distance": 1469.674584312531}], [{"id": "GkKWigF1T7KUEgrb2zpXHA", "alias": "lazeez-grill-allentown", "name": "Lazeez Grill", "image_url": "https://s3-media2.fl.yelpcdn.com/bphoto/CGWuSq6ATJBRvxum-fisoA/o.jpg", "is_closed": false, "url": "https://www.yelp.com/biz/lazeez-grill-allentown?adjust_creative=TpLShpR2csZ2AtLGvsRWXw&utm_campaign=yelp_api_v3&utm_medium=api_v3_business_search&utm_source=TpLShpR2csZ2AtLGvsRWXw", "review_count": 232, "categories": [{"alias": "mediterranean", "title": "Mediterranean"}, {"alias": "mideastern", "title": "Middle Eastern"}], "rating": 4.5, "coordinates": {"latitude": 40.5888182, "longitude": -75.5600454}, "transactions": [], "price": "$$", "location": {"address1": "Tilghman Square Plz", "address2": "", "address3": "4666 Broadway", "city": "Allentown", "zip_code": "18104", "country": "US", "state": "PA", "display_address": ["Tilghman Square Plz", "4666 Broadway", "Allentown, PA 18104"]}, "phone": "+16103516897", "display_phone": "(610) 351-6897", "distance": 5051.303292236278}, {"id": "GrHmz8dBTrSix3ihUNYacw", "alias": "grain-allentown-2", "name": "Grain", "image_url": "https://s3-media2.fl.yelpcdn.com/bphoto/j8UYnsbLcSiRPw_WNsUsNg/o.jpg", "is_closed": false, "url": "https://www.yelp.com/biz/grain-allentown-2?adjust_creative=TpLShpR2csZ2AtLGvsRWXw&utm_campaign=yelp_api_v3&utm_medium=api_v3_business_search&utm_source=TpLShpR2csZ2AtLGvsRWXw", "review_count": 323, "categories": [{"alias": "newamerican", "title": "American (New)"}, {"alias": "bars", "title": "Bars"}], "rating": 4.0, "coordinates": {"latitude": 40.602642, "longitude": -75.469121}, "transactions": ["delivery", "pickup"], "price": "$$", "location": {"address1": "536 Hamilton St", "address2": "", "address3": "", "city": "Allentown", "zip_code": "18101", "country": "US", "state": "PA", "display_address": ["536 Hamilton St", "Allentown, PA 18101"]}, "phone": "+14842219465", "display_phone": "(484) 221-9465", "distance": 2889.1455459810268}, {"id": "X3wjUOHQadf4EYslSZp-EQ", "alias": "cali-burrito-allentown", "name": "Cali Burrito", "image_url": "https://s3-media1.fl.yelpcdn.com/bphoto/dkZravCkNVe5zP5tusOqRA/o.jpg", "is_closed": false, "url": "https://www.yelp.com/biz/cali-burrito-allentown?adjust_creative=TpLShpR2csZ2AtLGvsRWXw&utm_campaign=yelp_api_v3&utm_medium=api_v3_business_search&utm_source=TpLShpR2csZ2AtLGvsRWXw", "review_count": 398, "categories": [{"alias": "mexican", "title": "Mexican"}, {"alias": "salad", "title": "Salad"}, {"alias": "breakfast_brunch", "title": "Breakfast & Brunch"}], "rating": 4.0, "coordinates": {"latitude": 40.5932, "longitude": -75.50176}, "transactions": [], "price": "$", "location": {"address1": "2149 Reading Rd", "address2": "", "address3": "", "city": "Allentown", "zip_code": "18103", "country": "US", "state": "PA", "display_address": ["2149 Reading Rd", "Allentown, PA 18103"]}, "phone": "+16103511791", "display_phone": "(610) 351-1791", "distance": 589.4065256859706}, {"id": "0saWzOZuxrjvvReiVQL_Mw", "alias": "hummus-house-allentown", "name": "Hummus House", "image_url": "https://s3-media1.fl.yelpcdn.com/bphoto/rK1etVvd876aCUH_aP8JBg/o.jpg", "is_closed": false, "url": "https://www.yelp.com/biz/hummus-house-allentown?adjust_creative=TpLShpR2csZ2AtLGvsRWXw&utm_campaign=yelp_api_v3&utm_medium=api_v3_business_search&utm_source=TpLShpR2csZ2AtLGvsRWXw", "review_count": 126, "categories": [{"alias": "mideastern", "title": "Middle Eastern"}, {"alias": "vegetarian", "title": "Vegetarian"}, {"alias": "delis", "title": "Delis"}], "rating": 4.5, "coordinates": {"latitude": 40.6016724, "longitude": -75.490061}, "transactions": ["delivery", "pickup"], "price": "$$", "location": {"address1": "1502 W Chew St", "address2": "", "address3": "", "city": "Allentown", "zip_code": "18102", "country": "US", "state": "PA", "display_address": ["1502 W Chew St", "Allentown, PA 18102"]}, "phone": "+16104348800", "display_phone": "(610) 434-8800", "distance": 1144.4583752300769}, {"id": "rDqhBB0nLwQC4aigLgooew", "alias": "union-and-finch-allentown", "name": "Union and Finch", "image_url": "https://s3-media1.fl.yelpcdn.com/bphoto/J7ddcOKhx5Cv19ie9VPlyA/o.jpg", "is_closed": false, "url": "https://www.yelp.com/biz/union-and-finch-allentown?adjust_creative=TpLShpR2csZ2AtLGvsRWXw&utm_campaign=yelp_api_v3&utm_medium=api_v3_business_search&utm_source=TpLShpR2csZ2AtLGvsRWXw", "review_count": 153, "categories": [{"alias": "newamerican", "title": "American (New)"}, {"alias": "beer_and_wine", "title": "Beer, Wine & Spirits"}, {"alias": "breakfast_brunch", "title": "Breakfast & Brunch"}], "rating": 4.5, "coordinates": {"latitude": 40.5947467162159, "longitude": -75.487684326447}, "transactions": ["delivery", "pickup"], "price": "$$", "location": {"address1": "1528 W Union St", "address2": "", "address3": null, "city": "Allentown", "zip_code": "18102", "country": "US", "state": "PA", "display_address": ["1528 W Union St", "Allentown, PA 18102"]}, "phone": "+16104321522", "display_phone": "(610) 432-1522", "distance": 1339.2491509488623}, {"id": "_rAHtP1Hejd_j65iUf1wRw", "alias": "damascus-restaurant-allentown", "name": "Damascus Restaurant", "image_url": "https://s3-media1.fl.yelpcdn.com/bphoto/P_zpi8mqFWuVkOAan0jfqg/o.jpg", "is_closed": false, "url": "https://www.yelp.com/biz/damascus-restaurant-allentown?adjust_creative=TpLShpR2csZ2AtLGvsRWXw&utm_campaign=yelp_api_v3&utm_medium=api_v3_business_search&utm_source=TpLShpR2csZ2AtLGvsRWXw", "review_count": 95, "categories": [{"alias": "mideastern", "title": "Middle Eastern"}, {"alias": "mediterranean", "title": "Mediterranean"}, {"alias": "greek", "title": "Greek"}], "rating": 4.5, "coordinates": {"latitude": 40.61246, "longitude": -75.46276}, "transactions": [], "price": "$$", "location": {"address1": "449 N 2nd St", "address2": "", "address3": "", "city": "Allentown", "zip_code": "18102", "country": "US", "state": "PA", "display_address": ["449 N 2nd St", "Allentown, PA 18102"]}, "phone": "+16104322036", "display_phone": "(610) 432-2036", "distance": 3718.071316192088}, {"id": "jXN0MHVX59JlXgmu7foMJQ", "alias": "the-aladdin-restaurant-allentown", "name": "The Aladdin Restaurant", "image_url": "https://s3-media3.fl.yelpcdn.com/bphoto/i2mILwV2OvTjEjlYxar9fA/o.jpg", "is_closed": false, "url": "https://www.yelp.com/biz/the-aladdin-restaurant-allentown?adjust_creative=TpLShpR2csZ2AtLGvsRWXw&utm_campaign=yelp_api_v3&utm_medium=api_v3_business_search&utm_source=TpLShpR2csZ2AtLGvsRWXw", "review_count": 110, "categories": [{"alias": "mideastern", "title": "Middle Eastern"}, {"alias": "vegetarian", "title": "Vegetarian"}, {"alias": "vegan", "title": "Vegan"}], "rating": 4.5, "coordinates": {"latitude": 40.6242167927045, "longitude": -75.4491357695317}, "transactions": [], "price": "$$", "location": {"address1": "651 Union Blvd", "address2": "", "address3": "", "city": "Allentown", "zip_code": "18103", "country": "US", "state": "PA", "display_address": ["651 Union Blvd", "Allentown, PA 18103"]}, "phone": "+16104374023", "display_phone": "(610) 437-4023", "distance": 5374.653188454581}, {"id": "r7gqMFeh2YAqXFzHgqN0Gw", "alias": "thai-avenue-allentown", "name": "Thai Avenue", "image_url": "https://s3-media1.fl.yelpcdn.com/bphoto/msT5dq1VETYSf-NN_p3E1w/o.jpg", "is_closed": false, "url": "https://www.yelp.com/biz/thai-avenue-allentown?adjust_creative=TpLShpR2csZ2AtLGvsRWXw&utm_campaign=yelp_api_v3&utm_medium=api_v3_business_search&utm_source=TpLShpR2csZ2AtLGvsRWXw", "review_count": 146, "categories": [{"alias": "thai", "title": "Thai"}, {"alias": "salad", "title": "Salad"}, {"alias": "seafood", "title": "Seafood"}], "rating": 4.0, "coordinates": {"latitude": 40.5896932882165, "longitude": -75.5626113014675}, "transactions": [], "price": "$$", "location": {"address1": "4791 W Tilghman St", "address2": "", "address3": "", "city": "Allentown", "zip_code": "18104", "country": "US", "state": "PA", "display_address": ["4791 W Tilghman St", "Allentown, PA 18104"]}, "phone": "+16103519496", "display_phone": "(610) 351-9496", "distance": 5106.944608338162}, {"id": "sAmpK6F-YTomphq-ZKMw6g", "alias": "aci-halal-allentown", "name": "Aci Halal", "image_url": "https://s3-media1.fl.yelpcdn.com/bphoto/atcnfJSpw6kpZgFOHNvrdg/o.jpg", "is_closed": false, "url": "https://www.yelp.com/biz/aci-halal-allentown?adjust_creative=TpLShpR2csZ2AtLGvsRWXw&utm_campaign=yelp_api_v3&utm_medium=api_v3_business_search&utm_source=TpLShpR2csZ2AtLGvsRWXw", "review_count": 97, "categories": [{"alias": "turkish", "title": "Turkish"}, {"alias": "mideastern", "title": "Middle Eastern"}, {"alias": "halal", "title": "Halal"}], "rating": 4.5, "coordinates": {"latitude": 40.60655, "longitude": -75.4607599}, "transactions": [], "price": "$$", "location": {"address1": "34 N 2nd St", "address2": "", "address3": "", "city": "Allentown", "zip_code": "18101", "country": "US", "state": "PA", "display_address": ["34 N 2nd St", "Allentown, PA 18101"]}, "phone": "+16104398782", "display_phone": "(610) 439-8782", "distance": 3666.1254498588546}, {"id": "wT24jwxOd0bBb6uwDH_kfQ", "alias": "fegleys-allentown-brew-works-allentown-3", "name": "Fegley's Allentown Brew Works", "image_url": "https://s3-media1.fl.yelpcdn.com/bphoto/nHfKFYzMDPwr9RkL1uL3sQ/o.jpg", "is_closed": false, "url": "https://www.yelp.com/biz/fegleys-allentown-brew-works-allentown-3?adjust_creative=TpLShpR2csZ2AtLGvsRWXw&utm_campaign=yelp_api_v3&utm_medium=api_v3_business_search&utm_source=TpLShpR2csZ2AtLGvsRWXw", "review_count": 232, "categories": [{"alias": "tradamerican", "title": "American (Traditional)"}, {"alias": "breweries", "title": "Breweries"}], "rating": 3.5, "coordinates": {"latitude": 40.60132, "longitude": -75.47402}, "transactions": ["delivery", "pickup"], "price": "$$", "location": {"address1": "812 W Hamilton St", "address2": "", "address3": "", "city": "Allentown", "zip_code": "18101", "country": "US", "state": "PA", "display_address": ["812 W Hamilton St", "Allentown, PA 18101"]}, "phone": "+16104337777", "display_phone": "(610) 433-7777", "distance": 2467.90581748667}, {"id": "aj80o7EULf4K5-rCEX6Ngg", "alias": "henrys-salt-of-the-sea-allentown", "name": "Henry's Salt of the Sea", "image_url": "https://s3-media3.fl.yelpcdn.com/bphoto/ATS0AAqUEmnIiTZpayluYg/o.jpg", "is_closed": false, "url": "https://www.yelp.com/biz/henrys-salt-of-the-sea-allentown?adjust_creative=TpLShpR2csZ2AtLGvsRWXw&utm_campaign=yelp_api_v3&utm_medium=api_v3_business_search&utm_source=TpLShpR2csZ2AtLGvsRWXw", "review_count": 110, "categories": [{"alias": "seafood", "title": "Seafood"}], "rating": 4.0, "coordinates": {"latitude": 40.603308, "longitude": -75.5012037}, "transactions": [], "price": "$$$", "location": {"address1": "1926 W Allen St", "address2": "", "address3": "", "city": "Allentown", "zip_code": "18104", "country": "US", "state": "PA", "display_address": ["1926 W Allen St", "Allentown, PA 18104"]}, "phone": "+16104342628", "display_phone": "(610) 434-2628", "distance": 577.2917301738389}, {"id": "WyMRegX4TVvBnrOOHH2SlQ", "alias": "edies-eatery-allentown", "name": "Edie's Eatery", "image_url": "https://s3-media2.fl.yelpcdn.com/bphoto/7yWuK_VBy3cuCLyqgt7zNQ/o.jpg", "is_closed": false, "url": "https://www.yelp.com/biz/edies-eatery-allentown?adjust_creative=TpLShpR2csZ2AtLGvsRWXw&utm_campaign=yelp_api_v3&utm_medium=api_v3_business_search&utm_source=TpLShpR2csZ2AtLGvsRWXw", "review_count": 65, "categories": [{"alias": "coffee", "title": "Coffee & Tea"}, {"alias": "breakfast_brunch", "title": "Breakfast & Brunch"}, {"alias": "sandwiches", "title": "Sandwiches"}], "rating": 4.5, "coordinates": {"latitude": 40.6005668640137, "longitude": -75.4749603271484}, "transactions": ["delivery", "pickup"], "price": "$$", "location": {"address1": "23 S 9th St", "address2": null, "address3": "", "city": "Allentown", "zip_code": "18102", "country": "US", "state": "PA", "display_address": ["23 S 9th St", "Allentown, PA 18102"]}, "phone": "+16104354971", "display_phone": "(610) 435-4971", "distance": 2368.9162070923944}, {"id": "f3VRpja8TOYJ7gTTZb_7jw", "alias": "grille-3501-allentown", "name": "Grille 3501", "image_url": "https://s3-media1.fl.yelpcdn.com/bphoto/ehGlgvveui53UpqNgG77nQ/o.jpg", "is_closed": false, "url": "https://www.yelp.com/biz/grille-3501-allentown?adjust_creative=TpLShpR2csZ2AtLGvsRWXw&utm_campaign=yelp_api_v3&utm_medium=api_v3_business_search&utm_source=TpLShpR2csZ2AtLGvsRWXw", "review_count": 169, "categories": [{"alias": "newamerican", "title": "American (New)"}], "rating": 4.0, "coordinates": {"latitude": 40.587026, "longitude": -75.529878}, "transactions": [], "price": "$$$", "location": {"address1": "3501 Broadway", "address2": "", "address3": "", "city": "Allentown", "zip_code": "18104", "country": "US", "state": "PA", "display_address": ["3501 Broadway", "Allentown, PA 18104"]}, "phone": "+16107060100", "display_phone": "(610) 706-0100", "distance": 2601.807505130761}, {"id": "uD3aE-F5l7KcwH8gUtg15g", "alias": "slice-of-italy-allentown", "name": "Slice of Italy", "image_url": "https://s3-media1.fl.yelpcdn.com/bphoto/Mf1lEMbmNBwCI4_1UroClQ/o.jpg", "is_closed": false, "url": "https://www.yelp.com/biz/slice-of-italy-allentown?adjust_creative=TpLShpR2csZ2AtLGvsRWXw&utm_campaign=yelp_api_v3&utm_medium=api_v3_business_search&utm_source=TpLShpR2csZ2AtLGvsRWXw", "review_count": 99, "categories": [{"alias": "italian", "title": "Italian"}, {"alias": "pizza", "title": "Pizza"}], "rating": 4.5, "coordinates": {"latitude": 40.5914864189396, "longitude": -75.5922085046768}, "transactions": ["delivery", "pickup"], "price": "$$", "location": {"address1": "5924 Tilghman St", "address2": "Ste G", "address3": "", "city": "Allentown", "zip_code": "18104", "country": "US", "state": "PA", "display_address": ["5924 Tilghman St", "Ste G", "Allentown, PA 18104"]}, "phone": "+16105307070", "display_phone": "(610) 530-7070", "distance": 7582.150929045942}, {"id": "zS7mjkC27sRvwCyGS0gfHQ", "alias": "griddle-145-whitehall", "name": "Griddle 145", "image_url": "https://s3-media3.fl.yelpcdn.com/bphoto/56C1V7RdRmAewgLebfcOsw/o.jpg", "is_closed": false, "url": "https://www.yelp.com/biz/griddle-145-whitehall?adjust_creative=TpLShpR2csZ2AtLGvsRWXw&utm_campaign=yelp_api_v3&utm_medium=api_v3_business_search&utm_source=TpLShpR2csZ2AtLGvsRWXw", "review_count": 216, "categories": [{"alias": "breakfast_brunch", "title": "Breakfast & Brunch"}, {"alias": "cafes", "title": "Cafes"}, {"alias": "burgers", "title": "Burgers"}], "rating": 4.5, "coordinates": {"latitude": 40.620614, "longitude": -75.480831}, "transactions": [], "price": "$$", "location": {"address1": "1146 MacArthur Rd", "address2": "", "address3": "", "city": "Whitehall", "zip_code": "18052", "country": "US", "state": "PA", "display_address": ["1146 MacArthur Rd", "Whitehall, PA 18052"]}, "phone": "+16103519898", "display_phone": "(610) 351-9898", "distance": 3103.2560956558405}, {"id": "H1ev6IkgPoC5MWmyOm4coA", "alias": "clove-fine-indian-dining-allentown", "name": "Clove, Fine Indian Dining", "image_url": "https://s3-media3.fl.yelpcdn.com/bphoto/93yjD0XwO6pbnx_7-6p7bw/o.jpg", "is_closed": false, "url": "https://www.yelp.com/biz/clove-fine-indian-dining-allentown?adjust_creative=TpLShpR2csZ2AtLGvsRWXw&utm_campaign=yelp_api_v3&utm_medium=api_v3_business_search&utm_source=TpLShpR2csZ2AtLGvsRWXw", "review_count": 96, "categories": [{"alias": "indpak", "title": "Indian"}], "rating": 4.5, "coordinates": {"latitude": 40.6241112, "longitude": -75.439743}, "transactions": ["delivery", "pickup"], "price": "$$", "location": {"address1": "1038 Union Blvd", "address2": "", "address3": "", "city": "Allentown", "zip_code": "18109", "country": "US", "state": "PA", "display_address": ["1038 Union Blvd", "Allentown, PA 18109"]}, "phone": "+16104332848", "display_phone": "(610) 433-2848", "distance": 6022.449919310045}, {"id": "AQs-SqEuJQ3INTNsBLGI9Q", "alias": "nostos-greek-restaurant-seafood-and-grill-allentown", "name": "Nostos Greek Restaurant Seafood And Grill", "image_url": "https://s3-media4.fl.yelpcdn.com/bphoto/0YROUaOlimcpQjO0rZweEg/o.jpg", "is_closed": false, "url": "https://www.yelp.com/biz/nostos-greek-restaurant-seafood-and-grill-allentown?adjust_creative=TpLShpR2csZ2AtLGvsRWXw&utm_campaign=yelp_api_v3&utm_medium=api_v3_business_search&utm_source=TpLShpR2csZ2AtLGvsRWXw", "review_count": 56, "categories": [{"alias": "greek", "title": "Greek"}, {"alias": "seafood", "title": "Seafood"}, {"alias": "breakfast_brunch", "title": "Breakfast & Brunch"}], "rating": 4.5, "coordinates": {"latitude": 40.60545, "longitude": -75.50085}, "transactions": ["pickup"], "price": "$$", "location": {"address1": "701 N 19th St", "address2": "", "address3": null, "city": "Allentown", "zip_code": "18104", "country": "US", "state": "PA", "display_address": ["701 N 19th St", "Allentown, PA 18104"]}, "phone": "+14843503799", "display_phone": "(484) 350-3799", "distance": 773.1816390266778}, {"id": "90jyCpx52QzhRg71_kFbww", "alias": "mary-ann-donut-kitchen-allentown", "name": "Mary Ann Donut Kitchen", "image_url": "https://s3-media3.fl.yelpcdn.com/bphoto/pjujR82scp3bRle88BB-EA/o.jpg", "is_closed": false, "url": "https://www.yelp.com/biz/mary-ann-donut-kitchen-allentown?adjust_creative=TpLShpR2csZ2AtLGvsRWXw&utm_campaign=yelp_api_v3&utm_medium=api_v3_business_search&utm_source=TpLShpR2csZ2AtLGvsRWXw", "review_count": 32, "categories": [{"alias": "bakeries", "title": "Bakeries"}, {"alias": "coffee", "title": "Coffee & Tea"}, {"alias": "donuts", "title": "Donuts"}], "rating": 5.0, "coordinates": {"latitude": 40.6042125, "longitude": -75.4936812}, "transactions": [], "price": "$", "location": {"address1": "1601 W Liberty St", "address2": "", "address3": "", "city": "Allentown", "zip_code": "18102", "country": "US", "state": "PA", "display_address": ["1601 W Liberty St", "Allentown, PA 18102"]}, "phone": "+16104399985", "display_phone": "(610) 439-9985", "distance": 1003.5402138743204}, {"id": "WtfDeiZmERa93J4apWJV-g", "alias": "biaggio-pizzeria-and-family-restaurant-allentown-2", "name": "Biaggio Pizzeria and Family Restaurant", "image_url": "https://s3-media1.fl.yelpcdn.com/bphoto/k8A6TT-jYq5_gEGgZ8_gpA/o.jpg", "is_closed": false, "url": "https://www.yelp.com/biz/biaggio-pizzeria-and-family-restaurant-allentown-2?adjust_creative=TpLShpR2csZ2AtLGvsRWXw&utm_campaign=yelp_api_v3&utm_medium=api_v3_business_search&utm_source=TpLShpR2csZ2AtLGvsRWXw", "review_count": 165, "categories": [{"alias": "pizza", "title": "Pizza"}, {"alias": "cheesesteaks", "title": "Cheesesteaks"}, {"alias": "salad", "title": "Salad"}], "rating": 4.0, "coordinates": {"latitude": 40.6123492, "longitude": -75.5336076}, "transactions": [], "price": "$$", "location": {"address1": "1526 N Cedar Crest Blvd", "address2": "", "address3": "", "city": "Allentown", "zip_code": "18104", "country": "US", "state": "PA", "display_address": ["1526 N Cedar Crest Blvd", "Allentown, PA 18104"]}, "phone": "+16103957006", "display_phone": "(610) 395-7006", "distance": 3031.895742497334}, {"id": "gMDuY2PGGD01cZXRBclH_g", "alias": "liberty-street-tavern-allentown", "name": "Liberty Street Tavern", "image_url": "https://s3-media1.fl.yelpcdn.com/bphoto/cE8BZk4-O6NLnFZfuRdSxA/o.jpg", "is_closed": false, "url": "https://www.yelp.com/biz/liberty-street-tavern-allentown?adjust_creative=TpLShpR2csZ2AtLGvsRWXw&utm_campaign=yelp_api_v3&utm_medium=api_v3_business_search&utm_source=TpLShpR2csZ2AtLGvsRWXw", "review_count": 118, "categories": [{"alias": "beerbar", "title": "Beer Bar"}, {"alias": "pizza", "title": "Pizza"}, {"alias": "sandwiches", "title": "Sandwiches"}], "rating": 4.0, "coordinates": {"latitude": 40.6000508, "longitude": -75.5077639}, "transactions": [], "price": "$$", "location": {"address1": "2246 W Liberty St", "address2": "", "address3": "", "city": "Allentown", "zip_code": "18104", "country": "US", "state": "PA", "display_address": ["2246 W Liberty St", "Allentown, PA 18104"]}, "phone": "+14842218765", "display_phone": "(484) 221-8765", "distance": 460.9879407724257}]]}