{"total": 658, "businesses": [[{"id": "9F6n0YmTse2pWiLB1xVbXA", "alias": "phnom-penh-restaurant-asian-cuisine-sioux-falls", "name": "Phnom Penh Restaurant Asian Cuisine", "image_url": "https://s3-media1.fl.yelpcdn.com/bphoto/5htP9Rxnsk4icpWRC0fQ4A/o.jpg", "is_closed": false, "url": "https://www.yelp.com/biz/phnom-penh-restaurant-asian-cuisine-sioux-falls?adjust_creative=TpLShpR2csZ2AtLGvsRWXw&utm_campaign=yelp_api_v3&utm_medium=api_v3_business_search&utm_source=TpLShpR2csZ2AtLGvsRWXw", "review_count": 119, "categories": [{"alias": "cambodian", "title": "Cambodian"}, {"alias": "chinese", "title": "Chinese"}, {"alias": "asianfusion", "title": "Asian Fusion"}], "rating": 4.5, "coordinates": {"latitude": 43.5598, "longitude": -96.73092}, "transactions": [], "price": "$$", "location": {"address1": "1010 N Minnesota Ave", "address2": "", "address3": "", "city": "Sioux Falls", "zip_code": "57104", "country": "US", "state": "SD", "display_address": ["1010 N Minnesota Ave", "Sioux Falls, SD 57104"]}, "phone": "+16053323935", "display_phone": "(605) 332-3935", "distance": 2935.129882515378}, {"id": "ybwEvgfX_W1jKci42zeGxQ", "alias": "josiahs-coffee-house-and-cafe-sioux-falls-3", "name": "Josiah's Coffee House & Cafe", "image_url": "https://s3-media3.fl.yelpcdn.com/bphoto/7hmIx99qYwzsz0S2hrGoFg/o.jpg", "is_closed": false, "url": "https://www.yelp.com/biz/josiahs-coffee-house-and-cafe-sioux-falls-3?adjust_creative=TpLShpR2csZ2AtLGvsRWXw&utm_campaign=yelp_api_v3&utm_medium=api_v3_business_search&utm_source=TpLShpR2csZ2AtLGvsRWXw", "review_count": 105, "categories": [{"alias": "cafes", "title": "Cafes"}, {"alias": "bakeries", "title": "Bakeries"}, {"alias": "breakfast_brunch", "title": "Breakfast & Brunch"}], "rating": 4.5, "coordinates": {"latitude": 43.543537, "longitude": -96.727078}, "transactions": [], "price": "$", "location": {"address1": "104 W 12th Street", "address2": "", "address3": "", "city": "Sioux Falls", "zip_code": "57103", "country": "US", "state": "SD", "display_address": ["104 W 12th Street", "Sioux Falls, SD 57103"]}, "phone": "+16057598255", "display_phone": "(605) 759-8255", "distance": 1367.6333873037838}, {"id": "5t5h4fMZfSP_h7yEk6_lQQ", "alias": "phillips-avenue-diner-sioux-falls", "name": "Phillips Avenue Diner", "image_url": "https://s3-media1.fl.yelpcdn.com/bphoto/WuBLysuZ6JIku6_QXFHKpg/o.jpg", "is_closed": false, "url": "https://www.yelp.com/biz/phillips-avenue-diner-sioux-falls?adjust_creative=TpLShpR2csZ2AtLGvsRWXw&utm_campaign=yelp_api_v3&utm_medium=api_v3_business_search&utm_source=TpLShpR2csZ2AtLGvsRWXw", "review_count": 217, "categories": [{"alias": "diners", "title": "Diners"}, {"alias": "breakfast_brunch", "title": "Breakfast & Brunch"}], "rating": 4.0, "coordinates": {"latitude": 43.54707, "longitude": -96.72696}, "transactions": [], "price": "$$", "location": {"address1": "121 S Phillips Ave", "address2": "", "address3": "", "city": "Sioux Falls", "zip_code": "57104", "country": "US", "state": "SD", "display_address": ["121 S Phillips Ave", "Sioux Falls, SD 57104"]}, "phone": "+16053354977", "display_phone": "(605) 335-4977", "distance": 1718.1014061377507}, {"id": "4pS4vQ-cuehpC67gXIDJ9A", "alias": "taphouse-41-sioux-falls", "name": "Taphouse 41", "image_url": "https://s3-media4.fl.yelpcdn.com/bphoto/ZtZgo0Uui6Lxcjz7reBOjw/o.jpg", "is_closed": false, "url": "https://www.yelp.com/biz/taphouse-41-sioux-falls?adjust_creative=TpLShpR2csZ2AtLGvsRWXw&utm_campaign=yelp_api_v3&utm_medium=api_v3_business_search&utm_source=TpLShpR2csZ2AtLGvsRWXw", "review_count": 152, "categories": [{"alias": "burgers", "title": "Burgers"}, {"alias": "beerbar", "title": "Beer Bar"}], "rating": 4.5, "coordinates": {"latitude": 43.5136638271034, "longitude": -96.7532666835643}, "transactions": [], "price": "$$", "location": {"address1": "2101 W 41st St", "address2": null, "address3": null, "city": "Sioux Falls", "zip_code": "57105", "country": "US", "state": "SD", "display_address": ["2101 W 41st St", "Sioux Falls, SD 57105"]}, "phone": "+16052749944", "display_phone": "(605) 274-9944", "distance": 2568.489681989793}, {"id": "8t8rXzGLlIGrdhYd6ORDgA", "alias": "sanaas-gourmet-restaurant-sioux-falls", "name": "Sanaa's Gourmet Restaurant", "image_url": "https://s3-media3.fl.yelpcdn.com/bphoto/nSGOAoynFWxq3pWL39Rhdw/o.jpg", "is_closed": false, "url": "https://www.yelp.com/biz/sanaas-gourmet-restaurant-sioux-falls?adjust_creative=TpLShpR2csZ2AtLGvsRWXw&utm_campaign=yelp_api_v3&utm_medium=api_v3_business_search&utm_source=TpLShpR2csZ2AtLGvsRWXw", "review_count": 112, "categories": [{"alias": "mediterranean", "title": "Mediterranean"}, {"alias": "vegetarian", "title": "Vegetarian"}], "rating": 4.5, "coordinates": {"latitude": 43.5485083, "longitude": -96.7222859}, "transactions": [], "price": "$$", "location": {"address1": "401 E 8th St", "address2": "Ste 100", "address3": "", "city": "Sioux Falls", "zip_code": "57103", "country": "US", "state": "SD", "display_address": ["401 E 8th St", "Ste 100", "Sioux Falls, SD 57103"]}, "phone": "+16052752516", "display_phone": "(605) 275-2516", "distance": 2041.2541272561402}, {"id": "iz3x_7auS7DgbxLI9T7Vug", "alias": "minervas-restaurant-sioux-falls-sioux-falls", "name": "Minervas Restaurant - Sioux Falls", "image_url": "https://s3-media3.fl.yelpcdn.com/bphoto/tzO28FjqODv8mnmdr1w1bQ/o.jpg", "is_closed": false, "url": "https://www.yelp.com/biz/minervas-restaurant-sioux-falls-sioux-falls?adjust_creative=TpLShpR2csZ2AtLGvsRWXw&utm_campaign=yelp_api_v3&utm_medium=api_v3_business_search&utm_source=TpLShpR2csZ2AtLGvsRWXw", "review_count": 158, "categories": [{"alias": "newamerican", "title": "American (New)"}, {"alias": "steak", "title": "Steakhouses"}], "rating": 4.0, "coordinates": {"latitude": 43.5444641113281, "longitude": -96.7272186279297}, "transactions": [], "price": "$$$", "location": {"address1": "301 S Phillips Ave", "address2": "", "address3": "", "city": "Sioux Falls", "zip_code": "57104", "country": "US", "state": "SD", "display_address": ["301 S Phillips Ave", "Sioux Falls, SD 57104"]}, "phone": "+16053340386", "display_phone": "(605) 334-0386", "distance": 1455.2566511118582}, {"id": "FVQXuuvK1bEdSa7spcIAqQ", "alias": "monks-house-of-ale-repute-and-gandy-dancer-brew-works-sioux-falls", "name": "Monk's House of Ale Repute and Gandy Dancer Brew Works", "image_url": "https://s3-media2.fl.yelpcdn.com/bphoto/Kz1vxfxY1-HZYLV22rVI0A/o.jpg", "is_closed": false, "url": "https://www.yelp.com/biz/monks-house-of-ale-repute-and-gandy-dancer-brew-works-sioux-falls?adjust_creative=TpLShpR2csZ2AtLGvsRWXw&utm_campaign=yelp_api_v3&utm_medium=api_v3_business_search&utm_source=TpLShpR2csZ2AtLGvsRWXw", "review_count": 103, "categories": [{"alias": "breweries", "title": "Breweries"}, {"alias": "newamerican", "title": "American (New)"}, {"alias": "beerbar", "title": "Beer Bar"}], "rating": 4.0, "coordinates": {"latitude": 43.5487672690635, "longitude": -96.721736108385}, "transactions": [], "price": "$$", "location": {"address1": "420 E 8th St", "address2": "", "address3": "", "city": "Sioux Falls", "zip_code": "57103", "country": "US", "state": "SD", "display_address": ["420 E 8th St", "Sioux Falls, SD 57103"]}, "phone": "+16053382328", "display_phone": "(605) 338-2328", "distance": 2089.563744491574}, {"id": "OpMuqCP4B84Ruh_c3HnBkQ", "alias": "mb-haskett-delicatessen-sioux-falls", "name": "MB Haskett Delicatessen", "image_url": "https://s3-media2.fl.yelpcdn.com/bphoto/Byf65P00YGVHD00hnECy-A/o.jpg", "is_closed": false, "url": "https://www.yelp.com/biz/mb-haskett-delicatessen-sioux-falls?adjust_creative=TpLShpR2csZ2AtLGvsRWXw&utm_campaign=yelp_api_v3&utm_medium=api_v3_business_search&utm_source=TpLShpR2csZ2AtLGvsRWXw", "review_count": 73, "categories": [{"alias": "coffee", "title": "Coffee & Tea"}, {"alias": "delis", "title": "Delis"}, {"alias": "breakfast_brunch", "title": "Breakfast & Brunch"}], "rating": 4.5, "coordinates": {"latitude": 43.543753, "longitude": -96.726491}, "transactions": [], "price": "$$", "location": {"address1": "324 S Phillips Ave", "address2": "", "address3": "", "city": "Sioux Falls", "zip_code": "57104", "country": "US", "state": "SD", "display_address": ["324 S Phillips Ave", "Sioux Falls, SD 57104"]}, "phone": "+16053671100", "display_phone": "(605) 367-1100", "distance": 1413.198951782067}, {"id": "vx4hS2YzGw9FeUiAZ0mvAw", "alias": "falls-park-sioux-falls", "name": "Falls Park", "image_url": "https://s3-media2.fl.yelpcdn.com/bphoto/yvODvmHYZb8kaQs-Rm1N1w/o.jpg", "is_closed": false, "url": "https://www.yelp.com/biz/falls-park-sioux-falls?adjust_creative=TpLShpR2csZ2AtLGvsRWXw&utm_campaign=yelp_api_v3&utm_medium=api_v3_business_search&utm_source=TpLShpR2csZ2AtLGvsRWXw", "review_count": 55, "categories": [{"alias": "parks", "title": "Parks"}], "rating": 4.5, "coordinates": {"latitude": 43.5586636, "longitude": -96.7259039}, "transactions": [], "location": {"address1": "900 N Phillips Ave", "address2": "", "address3": "", "city": "Sioux Falls", "zip_code": "57104", "country": "US", "state": "SD", "display_address": ["900 N Phillips Ave", "Sioux Falls, SD 57104"]}, "phone": "+16053677430", "display_phone": "(605) 367-7430", "distance": 3003.1568832321873}, {"id": "inkAvIkZ54b5JLCfEDobSw", "alias": "the-original-pancake-house-sioux-falls", "name": "The Original Pancake House", "image_url": "https://s3-media3.fl.yelpcdn.com/bphoto/pwgVy2nUMRE6PraHAMLDhg/o.jpg", "is_closed": false, "url": "https://www.yelp.com/biz/the-original-pancake-house-sioux-falls?adjust_creative=TpLShpR2csZ2AtLGvsRWXw&utm_campaign=yelp_api_v3&utm_medium=api_v3_business_search&utm_source=TpLShpR2csZ2AtLGvsRWXw", "review_count": 94, "categories": [{"alias": "breakfast_brunch", "title": "Breakfast & Brunch"}], "rating": 4.5, "coordinates": {"latitude": 43.5147035, "longitude": -96.7589311}, "transactions": [], "price": "$$", "location": {"address1": "2715 W 41st St", "address2": "", "address3": "", "city": "Sioux Falls", "zip_code": "57105", "country": "US", "state": "SD", "display_address": ["2715 W 41st St", "Sioux Falls, SD 57105"]}, "phone": "+16052717222", "display_phone": "(605) 271-7222", "distance": 2791.5210289800116}, {"id": "U3QkvZamqZsrVU4fGUZT3g", "alias": "lams-vietnamese-restaurant-sioux-falls", "name": "Lam's Vietnamese Restaurant", "image_url": "https://s3-media2.fl.yelpcdn.com/bphoto/bMcS-afeQ7mlqDNhc9zwJg/o.jpg", "is_closed": false, "url": "https://www.yelp.com/biz/lams-vietnamese-restaurant-sioux-falls?adjust_creative=TpLShpR2csZ2AtLGvsRWXw&utm_campaign=yelp_api_v3&utm_medium=api_v3_business_search&utm_source=TpLShpR2csZ2AtLGvsRWXw", "review_count": 92, "categories": [{"alias": "vietnamese", "title": "Vietnamese"}, {"alias": "vegetarian", "title": "Vegetarian"}], "rating": 4.5, "coordinates": {"latitude": 43.5622149, "longitude": -96.7061832}, "transactions": [], "price": "$$", "location": {"address1": "1600 E Rice St", "address2": "", "address3": "", "city": "Sioux Falls", "zip_code": "57103", "country": "US", "state": "SD", "display_address": ["1600 E Rice St", "Sioux Falls, SD 57103"]}, "phone": "+16052749898", "display_phone": "(605) 274-9898", "distance": 4053.9590761333834}, {"id": "QG005zxgK4yG7w8Fw4ymtg", "alias": "carnaval-brazilian-grill-sioux-falls", "name": "Carnaval Brazilian Grill", "image_url": "https://s3-media2.fl.yelpcdn.com/bphoto/DbDLkY7N84N8-qhUwif60w/o.jpg", "is_closed": false, "url": "https://www.yelp.com/biz/carnaval-brazilian-grill-sioux-falls?adjust_creative=TpLShpR2csZ2AtLGvsRWXw&utm_campaign=yelp_api_v3&utm_medium=api_v3_business_search&utm_source=TpLShpR2csZ2AtLGvsRWXw", "review_count": 90, "categories": [{"alias": "brazilian", "title": "Brazilian"}], "rating": 4.5, "coordinates": {"latitude": 43.5252227783203, "longitude": -96.7790374755859}, "transactions": [], "price": "$$$", "location": {"address1": "2401 S Carolyn Ave", "address2": "", "address3": "", "city": "Sioux Falls", "zip_code": "57106", "country": "US", "state": "SD", "display_address": ["2401 S Carolyn Ave", "Sioux Falls, SD 57106"]}, "phone": "+16053616328", "display_phone": "(605) 361-6328", "distance": 3571.6248788201774}, {"id": "atrWn8OuST_1jIaFdewKcQ", "alias": "grille-26-sioux-falls", "name": "Grille 26", "image_url": "https://s3-media2.fl.yelpcdn.com/bphoto/oznlTH26V7c4ZuL77JISMA/o.jpg", "is_closed": false, "url": "https://www.yelp.com/biz/grille-26-sioux-falls?adjust_creative=TpLShpR2csZ2AtLGvsRWXw&utm_campaign=yelp_api_v3&utm_medium=api_v3_business_search&utm_source=TpLShpR2csZ2AtLGvsRWXw", "review_count": 116, "categories": [{"alias": "bars", "title": "Bars"}, {"alias": "tradamerican", "title": "American (Traditional)"}, {"alias": "burgers", "title": "Burgers"}], "rating": 4.0, "coordinates": {"latitude": 43.5300793, "longitude": -96.7510322}, "transactions": [], "price": "$$", "location": {"address1": "1716 S Western Ave", "address2": null, "address3": null, "city": "Sioux Falls", "zip_code": "57105", "country": "US", "state": "SD", "display_address": ["1716 S Western Ave", "Sioux Falls, SD 57105"]}, "phone": "+16054441716", "display_phone": "(605) 444-1716", "distance": 1230.106947469566}, {"id": "tKf3ySnGnDccTi--g7PmIQ", "alias": "jackys-restaurant-sioux-falls", "name": "Jacky's Restaurant", "image_url": "https://s3-media3.fl.yelpcdn.com/bphoto/aOnWreAM1zNukXcq72de_g/o.jpg", "is_closed": false, "url": "https://www.yelp.com/biz/jackys-restaurant-sioux-falls?adjust_creative=TpLShpR2csZ2AtLGvsRWXw&utm_campaign=yelp_api_v3&utm_medium=api_v3_business_search&utm_source=TpLShpR2csZ2AtLGvsRWXw", "review_count": 93, "categories": [{"alias": "mexican", "title": "Mexican"}], "rating": 4.0, "coordinates": {"latitude": 43.54891, "longitude": -96.71806}, "transactions": [], "price": "$$", "location": {"address1": "702 E 8th St", "address2": "", "address3": "", "city": "Sioux Falls", "zip_code": "57103", "country": "US", "state": "SD", "display_address": ["702 E 8th St", "Sioux Falls, SD 57103"]}, "phone": "+16053360588", "display_phone": "(605) 336-0588", "distance": 2265.573947183693}, {"id": "ZsJzh7kwtJ5DlnWVvj0LrA", "alias": "shahi-indian-grill-sioux-falls", "name": "Shahi Indian Grill", "image_url": "https://s3-media1.fl.yelpcdn.com/bphoto/gCa83pjNLVsVVMEK9dRvMw/o.jpg", "is_closed": false, "url": "https://www.yelp.com/biz/shahi-indian-grill-sioux-falls?adjust_creative=TpLShpR2csZ2AtLGvsRWXw&utm_campaign=yelp_api_v3&utm_medium=api_v3_business_search&utm_source=TpLShpR2csZ2AtLGvsRWXw", "review_count": 107, "categories": [{"alias": "indpak", "title": "Indian"}, {"alias": "bars", "title": "Bars"}], "rating": 4.0, "coordinates": {"latitude": 43.5225141, "longitude": -96.7762747}, "transactions": ["pickup"], "price": "$$", "location": {"address1": "2527 S Shirley Ave", "address2": "", "address3": "", "city": "Sioux Falls", "zip_code": "57106", "country": "US", "state": "SD", "display_address": ["2527 S Shirley Ave", "Sioux Falls, SD 57106"]}, "phone": "+16053615050", "display_phone": "(605) 361-5050", "distance": 3453.266599325773}, {"id": "RbCOcbZfCAP1ip9OMuM9zQ", "alias": "ode-to-food-and-drinks-sioux-falls", "name": "Ode to Food and Drinks", "image_url": "https://s3-media2.fl.yelpcdn.com/bphoto/k-a89MvGK5x_ICdSwyY22A/o.jpg", "is_closed": false, "url": "https://www.yelp.com/biz/ode-to-food-and-drinks-sioux-falls?adjust_creative=TpLShpR2csZ2AtLGvsRWXw&utm_campaign=yelp_api_v3&utm_medium=api_v3_business_search&utm_source=TpLShpR2csZ2AtLGvsRWXw", "review_count": 72, "categories": [{"alias": "newamerican", "title": "American (New)"}, {"alias": "coffee", "title": "Coffee & Tea"}, {"alias": "bars", "title": "Bars"}], "rating": 4.5, "coordinates": {"latitude": 43.5498475519912, "longitude": -96.7238033227539}, "transactions": [], "price": "$$", "location": {"address1": "300 Cherapa Pl", "address2": "Ste 102", "address3": "", "city": "Sioux Falls", "zip_code": "57103", "country": "US", "state": "SD", "display_address": ["300 Cherapa Pl", "Ste 102", "Sioux Falls, SD 57103"]}, "phone": "+16052756332", "display_phone": "(605) 275-6332", "distance": 2108.2685171346106}, {"id": "YYF5oCuyAaIRbI66HWAZIQ", "alias": "prairie-berry-east-bank-sioux-falls", "name": "Prairie Berry East Bank", "image_url": "https://s3-media4.fl.yelpcdn.com/bphoto/ucNL4Maut_XSunZBF47k7Q/o.jpg", "is_closed": false, "url": "https://www.yelp.com/biz/prairie-berry-east-bank-sioux-falls?adjust_creative=TpLShpR2csZ2AtLGvsRWXw&utm_campaign=yelp_api_v3&utm_medium=api_v3_business_search&utm_source=TpLShpR2csZ2AtLGvsRWXw", "review_count": 36, "categories": [{"alias": "wineries", "title": "Wineries"}, {"alias": "newamerican", "title": "American (New)"}, {"alias": "breweries", "title": "Breweries"}], "rating": 4.5, "coordinates": {"latitude": 43.5486414, "longitude": -96.7239106}, "transactions": [], "price": "$$", "location": {"address1": "322 E 8th St", "address2": null, "address3": "", "city": "Sioux Falls", "zip_code": "57103", "country": "US", "state": "SD", "display_address": ["322 E 8th St", "Sioux Falls, SD 57103"]}, "phone": "+16054967175", "display_phone": "(605) 496-7175", "distance": 1986.3364671666468}, {"id": "6-qnVTHBvqYvfJXitz2NHA", "alias": "bros-brasserie-sioux-falls", "name": "Bros Brasserie", "image_url": "https://s3-media3.fl.yelpcdn.com/bphoto/psfqJLi4PmDds2xIZu63Pw/o.jpg", "is_closed": false, "url": "https://www.yelp.com/biz/bros-brasserie-sioux-falls?adjust_creative=TpLShpR2csZ2AtLGvsRWXw&utm_campaign=yelp_api_v3&utm_medium=api_v3_business_search&utm_source=TpLShpR2csZ2AtLGvsRWXw", "review_count": 98, "categories": [{"alias": "brasseries", "title": "Brasseries"}, {"alias": "newamerican", "title": "American (New)"}, {"alias": "cajun", "title": "Cajun/Creole"}], "rating": 4.0, "coordinates": {"latitude": 43.5436061443465, "longitude": -96.7266066194248}, "transactions": [], "price": "$$", "location": {"address1": "334 S Phillips Ave", "address2": "", "address3": "", "city": "Sioux Falls", "zip_code": "57104", "country": "US", "state": "SD", "display_address": ["334 S Phillips Ave", "Sioux Falls, SD 57104"]}, "phone": "+16052753181", "display_phone": "(605) 275-3181", "distance": 1394.4254583044278}, {"id": "mQQXf3oYcx5QdpfJXpO0-Q", "alias": "mamas-phried-and-phillys-sioux-falls", "name": "Mama's Phried and Phillys", "image_url": "https://s3-media3.fl.yelpcdn.com/bphoto/cw6D6frzBG6RFzsKf-8wKg/o.jpg", "is_closed": false, "url": "https://www.yelp.com/biz/mamas-phried-and-phillys-sioux-falls?adjust_creative=TpLShpR2csZ2AtLGvsRWXw&utm_campaign=yelp_api_v3&utm_medium=api_v3_business_search&utm_source=TpLShpR2csZ2AtLGvsRWXw", "review_count": 34, "categories": [{"alias": "sandwiches", "title": "Sandwiches"}], "rating": 4.5, "coordinates": {"latitude": 43.5459550470114, "longitude": -96.7261889576912}, "transactions": [], "price": "$", "location": {"address1": "111 1/2 E 10th St", "address2": "", "address3": "", "city": "Sioux Falls", "zip_code": "57104", "country": "US", "state": "SD", "display_address": ["111 1/2 E 10th St", "Sioux Falls, SD 57104"]}, "phone": "+16052759185", "display_phone": "(605) 275-9185", "distance": 1636.1550339266075}, {"id": "RiMIrezfa6NoArRidZEXYA", "alias": "spezia-sioux-falls-4", "name": "Spezia", "image_url": "https://s3-media2.fl.yelpcdn.com/bphoto/-NRXBf9URKGvWRhEEo8EqQ/o.jpg", "is_closed": false, "url": "https://www.yelp.com/biz/spezia-sioux-falls-4?adjust_creative=TpLShpR2csZ2AtLGvsRWXw&utm_campaign=yelp_api_v3&utm_medium=api_v3_business_search&utm_source=TpLShpR2csZ2AtLGvsRWXw", "review_count": 91, "categories": [{"alias": "italian", "title": "Italian"}], "rating": 4.0, "coordinates": {"latitude": 43.5017953, "longitude": -96.7711759}, "transactions": [], "price": "$$", "location": {"address1": "4801 S Louise Ave", "address2": "", "address3": "", "city": "Sioux Falls", "zip_code": "57106", "country": "US", "state": "SD", "display_address": ["4801 S Louise Ave", "Sioux Falls, SD 57106"]}, "phone": "+16053347491", "display_phone": "(605) 334-7491", "distance": 4522.806285136075}], [{"id": "kHymLhRKNgU6g1_BWT4kNA", "alias": "tallys-silver-spoon-rapid-city", "name": "Tally's Silver Spoon", "image_url": "https://s3-media2.fl.yelpcdn.com/bphoto/7D6-sHTV8F_dD86O8mBwng/o.jpg", "is_closed": false, "url": "https://www.yelp.com/biz/tallys-silver-spoon-rapid-city?adjust_creative=TpLShpR2csZ2AtLGvsRWXw&utm_campaign=yelp_api_v3&utm_medium=api_v3_business_search&utm_source=TpLShpR2csZ2AtLGvsRWXw", "review_count": 420, "categories": [{"alias": "desserts", "title": "Desserts"}, {"alias": "wine_bars", "title": "Wine Bars"}, {"alias": "breakfast_brunch", "title": "Breakfast & Brunch"}], "rating": 4.0, "coordinates": {"latitude": 44.08015, "longitude": -103.22701}, "transactions": [], "price": "$$", "location": {"address1": "530 6th St", "address2": "", "address3": "", "city": "Rapid City", "zip_code": "57701", "country": "US", "state": "SD", "display_address": ["530 6th St", "Rapid City, SD 57701"]}, "phone": "+16053427621", "display_phone": "(605) 342-7621", "distance": 279.9565412772232}, {"id": "kGKFMR1w5JBSSJ5GTJPIkA", "alias": "everest-cuisine-rapid-city", "name": "Everest Cuisine", "image_url": "https://s3-media1.fl.yelpcdn.com/bphoto/4sT9Mrr5aCU0E099691SOQ/o.jpg", "is_closed": false, "url": "https://www.yelp.com/biz/everest-cuisine-rapid-city?adjust_creative=TpLShpR2csZ2AtLGvsRWXw&utm_campaign=yelp_api_v3&utm_medium=api_v3_business_search&utm_source=TpLShpR2csZ2AtLGvsRWXw", "review_count": 183, "categories": [{"alias": "indpak", "title": "Indian"}, {"alias": "himalayan", "title": "Himalayan/Nepalese"}, {"alias": "pakistani", "title": "Pakistani"}], "rating": 4.5, "coordinates": {"latitude": 44.0823830625734, "longitude": -103.258373737335}, "transactions": [], "price": "$$", "location": {"address1": "2328 W Main St", "address2": "", "address3": "", "city": "Rapid City", "zip_code": "57702", "country": "US", "state": "SD", "display_address": ["2328 W Main St", "Rapid City, SD 57702"]}, "phone": "+16053434444", "display_phone": "(605) 343-4444", "distance": 2682.5002688003997}, {"id": "JxBJcRyj1ScHzBLIGJIYlQ", "alias": "independent-ale-house-rapid-city", "name": "Independent Ale House", "image_url": "https://s3-media3.fl.yelpcdn.com/bphoto/XQQ4bfBo6pXNtG7MNehdTw/o.jpg", "is_closed": false, "url": "https://www.yelp.com/biz/independent-ale-house-rapid-city?adjust_creative=TpLShpR2csZ2AtLGvsRWXw&utm_campaign=yelp_api_v3&utm_medium=api_v3_business_search&utm_source=TpLShpR2csZ2AtLGvsRWXw", "review_count": 218, "categories": [{"alias": "bars", "title": "Bars"}, {"alias": "pizza", "title": "Pizza"}, {"alias": "desserts", "title": "Desserts"}], "rating": 4.5, "coordinates": {"latitude": 44.08003, "longitude": -103.22884}, "transactions": [], "price": "$$", "location": {"address1": "625 St Joseph St", "address2": "", "address3": "", "city": "Rapid City", "zip_code": "57701", "country": "US", "state": "SD", "display_address": ["625 St Joseph St", "Rapid City, SD 57701"]}, "phone": "+16057189492", "display_phone": "(605) 718-9492", "distance": 400.67380295449976}, {"id": "YwansRZfzRk30Ytdi9d9LA", "alias": "murphys-pub-and-grill-rapid-city-2", "name": "Murphy's Pub & Grill", "image_url": "https://s3-media3.fl.yelpcdn.com/bphoto/lkZEaEdnK5xIndR3z5wrmw/o.jpg", "is_closed": false, "url": "https://www.yelp.com/biz/murphys-pub-and-grill-rapid-city-2?adjust_creative=TpLShpR2csZ2AtLGvsRWXw&utm_campaign=yelp_api_v3&utm_medium=api_v3_business_search&utm_source=TpLShpR2csZ2AtLGvsRWXw", "review_count": 333, "categories": [{"alias": "gastropubs", "title": "Gastropubs"}, {"alias": "tradamerican", "title": "American (Traditional)"}], "rating": 4.0, "coordinates": {"latitude": 44.08168, "longitude": -103.23238}, "transactions": [], "price": "$$", "location": {"address1": "510 9th St", "address2": "", "address3": "", "city": "Rapid City", "zip_code": "57701", "country": "US", "state": "SD", "display_address": ["510 9th St", "Rapid City, SD 57701"]}, "phone": "+16057912244", "display_phone": "(605) 791-2244", "distance": 608.0614977889521}, {"id": "34k7jA9E6SIFkymkYSVeMw", "alias": "philly-teds-cheesesteaks-rapid-city", "name": "Philly Ted's Cheesesteaks", "image_url": "https://s3-media4.fl.yelpcdn.com/bphoto/Vbe1uRMuPWyfb0D0SrRQ_g/o.jpg", "is_closed": false, "url": "https://www.yelp.com/biz/philly-teds-cheesesteaks-rapid-city?adjust_creative=TpLShpR2csZ2AtLGvsRWXw&utm_campaign=yelp_api_v3&utm_medium=api_v3_business_search&utm_source=TpLShpR2csZ2AtLGvsRWXw", "review_count": 131, "categories": [{"alias": "sandwiches", "title": "Sandwiches"}, {"alias": "salad", "title": "Salad"}], "rating": 4.5, "coordinates": {"latitude": 44.09952, "longitude": -103.202521}, "transactions": [], "price": "$", "location": {"address1": "1415 N Lacrosse St", "address2": "Ste 4", "address3": null, "city": "Rapid City", "zip_code": "57701", "country": "US", "state": "SD", "display_address": ["1415 N Lacrosse St", "Ste 4", "Rapid City, SD 57701"]}, "phone": "+16053486113", "display_phone": "(605) 348-6113", "distance": 2628.6986809958607}, {"id": "1w-8jj2yf-mDtLHhWGz9pg", "alias": "kathmandu-bistro-rapid-city", "name": "Kathmandu Bistro", "image_url": "https://s3-media2.fl.yelpcdn.com/bphoto/WYzE83JHuu_lbeEX6bMwkA/o.jpg", "is_closed": false, "url": "https://www.yelp.com/biz/kathmandu-bistro-rapid-city?adjust_creative=TpLShpR2csZ2AtLGvsRWXw&utm_campaign=yelp_api_v3&utm_medium=api_v3_business_search&utm_source=TpLShpR2csZ2AtLGvsRWXw", "review_count": 146, "categories": [{"alias": "himalayan", "title": "Himalayan/Nepalese"}, {"alias": "indpak", "title": "Indian"}, {"alias": "buffets", "title": "Buffets"}], "rating": 4.5, "coordinates": {"latitude": 44.08143, "longitude": -103.2302799}, "transactions": [], "price": "$$", "location": {"address1": "727 Main St", "address2": null, "address3": "", "city": "Rapid City", "zip_code": "57701", "country": "US", "state": "SD", "display_address": ["727 Main St", "Rapid City, SD 57701"]}, "phone": "+16053435070", "display_phone": "(605) 343-5070", "distance": 444.9238417688378}, {"id": "_NREXJkNQ4kInrhL9tPzbw", "alias": "pacific-rim-cafe-rapid-city", "name": "Pacific Rim Cafe", "image_url": "https://s3-media3.fl.yelpcdn.com/bphoto/c0GoYfzDVEr0z8AY8t0vBw/o.jpg", "is_closed": false, "url": "https://www.yelp.com/biz/pacific-rim-cafe-rapid-city?adjust_creative=TpLShpR2csZ2AtLGvsRWXw&utm_campaign=yelp_api_v3&utm_medium=api_v3_business_search&utm_source=TpLShpR2csZ2AtLGvsRWXw", "review_count": 146, "categories": [{"alias": "vietnamese", "title": "Vietnamese"}, {"alias": "asianfusion", "title": "Asian Fusion"}, {"alias": "chinese", "title": "Chinese"}], "rating": 4.5, "coordinates": {"latitude": 44.0989338921156, "longitude": -103.202291268593}, "transactions": [], "price": "$", "location": {"address1": "1375 La Crosse St", "address2": "Ste 1", "address3": "", "city": "Rapid City", "zip_code": "57701", "country": "US", "state": "SD", "display_address": ["1375 La Crosse St", "Ste 1", "Rapid City, SD 57701"]}, "phone": "+16057914148", "display_phone": "(605) 791-4148", "distance": 2593.772454679356}, {"id": "25FDuGksQQ1ZluLqSMiSnw", "alias": "the-gyro-hub-rapid-city", "name": "The Gyro Hub", "image_url": "https://s3-media3.fl.yelpcdn.com/bphoto/g7gufHq2eCc7muYiiosLaQ/o.jpg", "is_closed": false, "url": "https://www.yelp.com/biz/the-gyro-hub-rapid-city?adjust_creative=TpLShpR2csZ2AtLGvsRWXw&utm_campaign=yelp_api_v3&utm_medium=api_v3_business_search&utm_source=TpLShpR2csZ2AtLGvsRWXw", "review_count": 93, "categories": [{"alias": "mediterranean", "title": "Mediterranean"}, {"alias": "desserts", "title": "Desserts"}, {"alias": "sandwiches", "title": "Sandwiches"}], "rating": 5.0, "coordinates": {"latitude": 44.08374, "longitude": -103.23922}, "transactions": [], "price": "$$", "location": {"address1": "1301 W Omaha", "address2": "Ste 104", "address3": "", "city": "Rapid City", "zip_code": "57701", "country": "US", "state": "SD", "display_address": ["1301 W Omaha", "Ste 104", "Rapid City, SD 57701"]}, "phone": "+16053482877", "display_phone": "(605) 348-2877", "distance": 1184.5986314610043}, {"id": "L6AgZm-8kjwVYcaqY4OygA", "alias": "kōl-rapid-city", "name": "Kōl", "image_url": "https://s3-media4.fl.yelpcdn.com/bphoto/Mhsdqp9-lYY58l1otjtxwQ/o.jpg", "is_closed": false, "url": "https://www.yelp.com/biz/k%C5%8Dl-rapid-city?adjust_creative=TpLShpR2csZ2AtLGvsRWXw&utm_campaign=yelp_api_v3&utm_medium=api_v3_business_search&utm_source=TpLShpR2csZ2AtLGvsRWXw", "review_count": 128, "categories": [{"alias": "pizza", "title": "Pizza"}, {"alias": "cocktailbars", "title": "Cocktail Bars"}, {"alias": "newamerican", "title": "American (New)"}], "rating": 4.0, "coordinates": {"latitude": 44.08133, "longitude": -103.23057}, "transactions": [], "price": "$$", "location": {"address1": "504 Mt Rushmore Rd", "address2": "", "address3": "", "city": "Rapid City", "zip_code": "57701", "country": "US", "state": "SD", "display_address": ["504 Mt Rushmore Rd", "Rapid City, SD 57701"]}, "phone": "+16057911600", "display_phone": "(605) 791-1600", "distance": 471.4233801861529}, {"id": "aKG4xcUYhDnY_dZylWI-qw", "alias": "colonial-house-restaurant-and-bar-rapid-city", "name": "Colonial House Restaurant & Bar", "image_url": "https://s3-media3.fl.yelpcdn.com/bphoto/u2PeCUJazERzxeEM_lVqMw/o.jpg", "is_closed": false, "url": "https://www.yelp.com/biz/colonial-house-restaurant-and-bar-rapid-city?adjust_creative=TpLShpR2csZ2AtLGvsRWXw&utm_campaign=yelp_api_v3&utm_medium=api_v3_business_search&utm_source=TpLShpR2csZ2AtLGvsRWXw", "review_count": 187, "categories": [{"alias": "tradamerican", "title": "American (Traditional)"}, {"alias": "breakfast_brunch", "title": "Breakfast & Brunch"}], "rating": 4.0, "coordinates": {"latitude": 44.0629213457982, "longitude": -103.232870885591}, "transactions": [], "price": "$$", "location": {"address1": "2315 Mount Rushmore Rd", "address2": "", "address3": "", "city": "Rapid City", "zip_code": "57701", "country": "US", "state": "SD", "display_address": ["2315 Mount Rushmore Rd", "Rapid City, SD 57701"]}, "phone": "+16053424640", "display_phone": "(605) 342-4640", "distance": 2229.4974540259386}, {"id": "zmJOp1FxdzeJyiobFMTcyw", "alias": "firehouse-brewing-company-rapid-city", "name": "Firehouse Brewing Company", "image_url": "https://s3-media2.fl.yelpcdn.com/bphoto/CxQa2l5LC_Lv72kfxBEZtw/o.jpg", "is_closed": false, "url": "https://www.yelp.com/biz/firehouse-brewing-company-rapid-city?adjust_creative=TpLShpR2csZ2AtLGvsRWXw&utm_campaign=yelp_api_v3&utm_medium=api_v3_business_search&utm_source=TpLShpR2csZ2AtLGvsRWXw", "review_count": 523, "categories": [{"alias": "tradamerican", "title": "American (Traditional)"}, {"alias": "bbq", "title": "Barbeque"}, {"alias": "breweries", "title": "Breweries"}], "rating": 3.0, "coordinates": {"latitude": 44.08135, "longitude": -103.2275499}, "transactions": [], "price": "$$", "location": {"address1": "610 Main St", "address2": "", "address3": "", "city": "Rapid City", "zip_code": "57701", "country": "US", "state": "SD", "display_address": ["610 Main St", "Rapid City, SD 57701"]}, "phone": "+16053481915", "display_phone": "(605) 348-1915", "distance": 236.95857182868346}, {"id": "d_cuHGnzc8G2gosouW24ZQ", "alias": "delmonico-grill-rapid-city", "name": "Delmonico Grill", "image_url": "https://s3-media1.fl.yelpcdn.com/bphoto/mNM6_UNRdOHTJn1eiuanfA/o.jpg", "is_closed": false, "url": "https://www.yelp.com/biz/delmonico-grill-rapid-city?adjust_creative=TpLShpR2csZ2AtLGvsRWXw&utm_campaign=yelp_api_v3&utm_medium=api_v3_business_search&utm_source=TpLShpR2csZ2AtLGvsRWXw", "review_count": 117, "categories": [{"alias": "steak", "title": "Steakhouses"}, {"alias": "tradamerican", "title": "American (Traditional)"}], "rating": 4.0, "coordinates": {"latitude": 44.08102, "longitude": -103.22766}, "transactions": [], "price": "$$$", "location": {"address1": "609 Main St", "address2": "", "address3": "", "city": "Rapid City", "zip_code": "57701", "country": "US", "state": "SD", "display_address": ["609 Main St", "Rapid City, SD 57701"]}, "phone": "+16057911664", "display_phone": "(605) 791-1664", "distance": 269.79073990384734}, {"id": "tEdfY_jLKGmZD2imJai5CA", "alias": "fuji-sushi-and-sake-bar-rapid-city", "name": "Fuji Sushi & Sake Bar", "image_url": "https://s3-media3.fl.yelpcdn.com/bphoto/DSY0dBUX5u6IFRo23TInTw/o.jpg", "is_closed": false, "url": "https://www.yelp.com/biz/fuji-sushi-and-sake-bar-rapid-city?adjust_creative=TpLShpR2csZ2AtLGvsRWXw&utm_campaign=yelp_api_v3&utm_medium=api_v3_business_search&utm_source=TpLShpR2csZ2AtLGvsRWXw", "review_count": 68, "categories": [{"alias": "japanese", "title": "Japanese"}, {"alias": "sushi", "title": "Sushi Bars"}, {"alias": "chinese", "title": "Chinese"}], "rating": 4.5, "coordinates": {"latitude": 44.10621, "longitude": -103.20707}, "transactions": [], "price": "$$", "location": {"address1": "2200 N Maple Ave", "address2": "Unit 478", "address3": "", "city": "Rapid City", "zip_code": "57701", "country": "US", "state": "SD", "display_address": ["2200 N Maple Ave", "Unit 478", "Rapid City, SD 57701"]}, "phone": "+16053431819", "display_phone": "(605) 343-1819", "distance": 3024.5329399976063}, {"id": "ZYwtt8Gwqo9m_136uHHe4w", "alias": "dakotah-steakhouse-rapid-city", "name": "Dakotah Steakhouse", "image_url": "https://s3-media1.fl.yelpcdn.com/bphoto/fq9AKtNsqu95-o6l5kZGBw/o.jpg", "is_closed": false, "url": "https://www.yelp.com/biz/dakotah-steakhouse-rapid-city?adjust_creative=TpLShpR2csZ2AtLGvsRWXw&utm_campaign=yelp_api_v3&utm_medium=api_v3_business_search&utm_source=TpLShpR2csZ2AtLGvsRWXw", "review_count": 215, "categories": [{"alias": "steak", "title": "Steakhouses"}, {"alias": "tradamerican", "title": "American (Traditional)"}], "rating": 3.5, "coordinates": {"latitude": 44.0977409920409, "longitude": -103.152148499708}, "transactions": [], "price": "$$$", "location": {"address1": "1325 N Elk Vale Rd", "address2": "", "address3": "", "city": "Rapid City", "zip_code": "57703", "country": "US", "state": "SD", "display_address": ["1325 N Elk Vale Rd", "Rapid City, SD 57703"]}, "phone": "+16057911800", "display_phone": "(605) 791-1800", "distance": 6056.397743220878}, {"id": "B1zv8VEliWxajfvZultFIA", "alias": "blaze-fast-fired-pizza-rapid-city", "name": "Blaze Fast-Fire'd Pizza", "image_url": "https://s3-media2.fl.yelpcdn.com/bphoto/7aIF4Vq_YH15P1mVMn-vYg/o.jpg", "is_closed": false, "url": "https://www.yelp.com/biz/blaze-fast-fired-pizza-rapid-city?adjust_creative=TpLShpR2csZ2AtLGvsRWXw&utm_campaign=yelp_api_v3&utm_medium=api_v3_business_search&utm_source=TpLShpR2csZ2AtLGvsRWXw", "review_count": 73, "categories": [{"alias": "salad", "title": "Salad"}, {"alias": "pizza", "title": "Pizza"}, {"alias": "hotdogs", "title": "Fast Food"}], "rating": 4.0, "coordinates": {"latitude": 44.100579, "longitude": -103.189838}, "transactions": [], "price": "$", "location": {"address1": "1325 Eglin St", "address2": null, "address3": null, "city": "Rapid City", "zip_code": "57701", "country": "US", "state": "SD", "display_address": ["1325 Eglin St", "Rapid City, SD 57701"]}, "phone": "+16053094253", "display_phone": "(605) 309-4253", "distance": 3465.397333006509}, {"id": "_1LLOMzyVVIDKR1WifpgWg", "alias": "essence-of-coffee-rapid-city-8", "name": "Essence Of Coffee", "image_url": "https://s3-media4.fl.yelpcdn.com/bphoto/GaYT9K0qhO-USNKtrVVNPg/o.jpg", "is_closed": false, "url": "https://www.yelp.com/biz/essence-of-coffee-rapid-city-8?adjust_creative=TpLShpR2csZ2AtLGvsRWXw&utm_campaign=yelp_api_v3&utm_medium=api_v3_business_search&utm_source=TpLShpR2csZ2AtLGvsRWXw", "review_count": 43, "categories": [{"alias": "coffee", "title": "Coffee & Tea"}], "rating": 4.5, "coordinates": {"latitude": 44.0822296, "longitude": -103.2329865}, "transactions": [], "price": "$$", "location": {"address1": "908 Main St", "address2": null, "address3": null, "city": "Rapid City", "zip_code": "57701", "country": "US", "state": "SD", "display_address": ["908 Main St", "Rapid City, SD 57701"]}, "phone": "+16053423559", "display_phone": "(605) 342-3559", "distance": 653.5796125128257}, {"id": "pbb59QtHnE-iRhlpVs35vQ", "alias": "que-pasa-rapid-city", "name": "Que Pasa", "image_url": "https://s3-media4.fl.yelpcdn.com/bphoto/T38pMZ9cWcxDmxSbWAEjZw/o.jpg", "is_closed": false, "url": "https://www.yelp.com/biz/que-pasa-rapid-city?adjust_creative=TpLShpR2csZ2AtLGvsRWXw&utm_campaign=yelp_api_v3&utm_medium=api_v3_business_search&utm_source=TpLShpR2csZ2AtLGvsRWXw", "review_count": 216, "categories": [{"alias": "mexican", "title": "Mexican"}, {"alias": "cocktailbars", "title": "Cocktail Bars"}], "rating": 3.5, "coordinates": {"latitude": 44.08117, "longitude": -103.22536}, "transactions": [], "price": "$$", "location": {"address1": "502 Main St", "address2": "", "address3": "", "city": "Rapid City", "zip_code": "57701", "country": "US", "state": "SD", "display_address": ["502 Main St", "Rapid City, SD 57701"]}, "phone": "+16057169800", "display_phone": "(605) 716-9800", "distance": 114.35074101304825}, {"id": "_5h1GR8WaZropXDqaGVg-w", "alias": "reptile-gardens-rapid-city", "name": "Reptile Gardens", "image_url": "https://s3-media1.fl.yelpcdn.com/bphoto/iRACYnsl-tqMFTyKSZTgxg/o.jpg", "is_closed": false, "url": "https://www.yelp.com/biz/reptile-gardens-rapid-city?adjust_creative=TpLShpR2csZ2AtLGvsRWXw&utm_campaign=yelp_api_v3&utm_medium=api_v3_business_search&utm_source=TpLShpR2csZ2AtLGvsRWXw", "review_count": 51, "categories": [{"alias": "gardens", "title": "Botanical Gardens"}, {"alias": "zoos", "title": "Zoos"}, {"alias": "parks", "title": "Parks"}], "rating": 4.5, "coordinates": {"latitude": 43.99071, "longitude": -103.27151}, "transactions": [], "location": {"address1": "8955 S Hwy 16", "address2": "", "address3": "", "city": "Rapid City", "zip_code": "57702", "country": "US", "state": "SD", "display_address": ["8955 S Hwy 16", "Rapid City, SD 57702"]}, "phone": "+18003350275", "display_phone": "(800) 335-0275", "distance": 10794.884332072286}, {"id": "HtQTaM5VekbLAvL8cOo-rw", "alias": "pure-bean-rapid-city", "name": "Pure Bean", "image_url": "https://s3-media3.fl.yelpcdn.com/bphoto/yP7znMPbzjlzSzQwmEV2lA/o.jpg", "is_closed": false, "url": "https://www.yelp.com/biz/pure-bean-rapid-city?adjust_creative=TpLShpR2csZ2AtLGvsRWXw&utm_campaign=yelp_api_v3&utm_medium=api_v3_business_search&utm_source=TpLShpR2csZ2AtLGvsRWXw", "review_count": 41, "categories": [{"alias": "coffee", "title": "Coffee & Tea"}], "rating": 4.5, "coordinates": {"latitude": 44.0796356201172, "longitude": -103.220085144043}, "transactions": [], "price": "$$", "location": {"address1": "201 Main St", "address2": "Ste 101", "address3": "", "city": "Rapid City", "zip_code": "57701", "country": "US", "state": "SD", "display_address": ["201 Main St", "Ste 101", "Rapid City, SD 57701"]}, "phone": "+16057167894", "display_phone": "(605) 716-7894", "distance": 470.76135678600696}, {"id": "lsPM4QEroKT2oQ3EbiNcww", "alias": "bear-country-usa-rapid-city", "name": "Bear Country USA", "image_url": "https://s3-media4.fl.yelpcdn.com/bphoto/1B3vlV773EkQuTttuZlAyg/o.jpg", "is_closed": false, "url": "https://www.yelp.com/biz/bear-country-usa-rapid-city?adjust_creative=TpLShpR2csZ2AtLGvsRWXw&utm_campaign=yelp_api_v3&utm_medium=api_v3_business_search&utm_source=TpLShpR2csZ2AtLGvsRWXw", "review_count": 142, "categories": [{"alias": "parks", "title": "Parks"}], "rating": 4.0, "coordinates": {"latitude": 43.976041, "longitude": -103.299122}, "transactions": [], "location": {"address1": "13820 S Hwy 16", "address2": "", "address3": "", "city": "Rapid City", "zip_code": "57702", "country": "US", "state": "SD", "display_address": ["13820 S Hwy 16", "Rapid City, SD 57702"]}, "phone": "+16053432290", "display_phone": "(605) 343-2290", "distance": 13207.10306971805}]]}