{"total": 6919, "businesses": [[{"id": "6I28wDuMBR5WLMqfKxaoeg", "alias": "pike-place-chowder-seattle", "name": "Pike Place Chowder", "image_url": "https://s3-media3.fl.yelpcdn.com/bphoto/ijju-wYoRAxWjHPTCxyQGQ/o.jpg", "is_closed": false, "url": "https://www.yelp.com/biz/pike-place-chowder-seattle?adjust_creative=TpLShpR2csZ2AtLGvsRWXw&utm_campaign=yelp_api_v3&utm_medium=api_v3_business_search&utm_source=TpLShpR2csZ2AtLGvsRWXw", "review_count": 5626, "categories": [{"alias": "seafood", "title": "Seafood"}, {"alias": "tradamerican", "title": "American (Traditional)"}, {"alias": "soup", "title": "Soup"}], "rating": 4.5, "coordinates": {"latitude": 47.609411, "longitude": -122.341191}, "transactions": ["pickup"], "price": "$$", "location": {"address1": "1530 Post Aly", "address2": "Ste 11", "address3": "", "city": "Seattle", "zip_code": "98101", "country": "US", "state": "WA", "display_address": ["1530 Post Aly", "Ste 11", "Seattle, WA 98101"]}, "phone": "+12062672537", "display_phone": "(206) 267-2537", "distance": 1830.2301898696153}, {"id": "Wk9f5Zpnu4T6Vzf6CF5iuA", "alias": "paseo-caribbean-food-fremont-seattle-2", "name": "Paseo Caribbean Food - Fremont", "image_url": "https://s3-media3.fl.yelpcdn.com/bphoto/o5csrmtkMORuMcVBW2dnYg/o.jpg", "is_closed": false, "url": "https://www.yelp.com/biz/paseo-caribbean-food-fremont-seattle-2?adjust_creative=TpLShpR2csZ2AtLGvsRWXw&utm_campaign=yelp_api_v3&utm_medium=api_v3_business_search&utm_source=TpLShpR2csZ2AtLGvsRWXw", "review_count": 4635, "categories": [{"alias": "caribbean", "title": "Caribbean"}, {"alias": "cuban", "title": "Cuban"}, {"alias": "sandwiches", "title": "Sandwiches"}], "rating": 4.5, "coordinates": {"latitude": 47.65849, "longitude": -122.35031}, "transactions": ["delivery", "pickup"], "price": "$", "location": {"address1": "4225 Fremont Ave N", "address2": "", "address3": "", "city": "Seattle", "zip_code": "98103", "country": "US", "state": "WA", "display_address": ["4225 Fremont Ave N", "Seattle, WA 98103"]}, "phone": "+12065457440", "display_phone": "(206) 545-7440", "distance": 3841.3099298762595}, {"id": "NxwrJPJLzTs0k0DQ-QCo1A", "alias": "piroshky-piroshky-seattle", "name": "Piroshky Piroshky", "image_url": "https://s3-media4.fl.yelpcdn.com/bphoto/yjqyb9elWeiFonXkmDiJmA/o.jpg", "is_closed": false, "url": "https://www.yelp.com/biz/piroshky-piroshky-seattle?adjust_creative=TpLShpR2csZ2AtLGvsRWXw&utm_campaign=yelp_api_v3&utm_medium=api_v3_business_search&utm_source=TpLShpR2csZ2AtLGvsRWXw", "review_count": 5045, "categories": [{"alias": "bakeries", "title": "Bakeries"}, {"alias": "russian", "title": "Russian"}], "rating": 4.5, "coordinates": {"latitude": 47.60991, "longitude": -122.34231}, "transactions": [], "price": "$", "location": {"address1": "1908 Pike Pl", "address2": "", "address3": "", "city": "Seattle", "zip_code": "98101", "country": "US", "state": "WA", "display_address": ["1908 Pike Pl", "Seattle, WA 98101"]}, "phone": "+12064416068", "display_phone": "(206) 441-6068", "distance": 1796.8819295367225}, {"id": "VOPdG8llLPaga9iJxXcMuQ", "alias": "the-pink-door-seattle-4", "name": "The Pink Door", "image_url": "https://s3-media3.fl.yelpcdn.com/bphoto/4MmMuSGEQCXpqEoCOhL7tw/o.jpg", "is_closed": false, "url": "https://www.yelp.com/biz/the-pink-door-seattle-4?adjust_creative=TpLShpR2csZ2AtLGvsRWXw&utm_campaign=yelp_api_v3&utm_medium=api_v3_business_search&utm_source=TpLShpR2csZ2AtLGvsRWXw", "review_count": 3361, "categories": [{"alias": "italian", "title": "Italian"}, {"alias": "wine_bars", "title": "Wine Bars"}, {"alias": "gluten_free", "title": "Gluten-Free"}], "rating": 4.5, "coordinates": {"latitude": 47.61028, "longitude": -122.3425}, "transactions": [], "price": "$$", "location": {"address1": "1919 Post Alley", "address2": "", "address3": "", "city": "Seattle", "zip_code": "98101", "country": "US", "state": "WA", "display_address": ["1919 Post Alley", "Seattle, WA 98101"]}, "phone": "+12064433241", "display_phone": "(206) 443-3241", "distance": 1755.3385197252683}, {"id": "aX2ctpgS9uvFDfdzCXjecA", "alias": "the-crumpet-shop-seattle", "name": "The Crumpet Shop", "image_url": "https://s3-media3.fl.yelpcdn.com/bphoto/sg9QU7bmfsWe_JT48ciI1Q/o.jpg", "is_closed": false, "url": "https://www.yelp.com/biz/the-crumpet-shop-seattle?adjust_creative=TpLShpR2csZ2AtLGvsRWXw&utm_campaign=yelp_api_v3&utm_medium=api_v3_business_search&utm_source=TpLShpR2csZ2AtLGvsRWXw", "review_count": 1957, "categories": [{"alias": "bakeries", "title": "Bakeries"}, {"alias": "coffee", "title": "Coffee & Tea"}, {"alias": "breakfast_brunch", "title": "Breakfast & Brunch"}], "rating": 4.5, "coordinates": {"latitude": 47.6090277348593, "longitude": -122.340491730164}, "transactions": [], "price": "$", "location": {"address1": "1503 1st Ave", "address2": "", "address3": "", "city": "Seattle", "zip_code": "98101", "country": "US", "state": "WA", "display_address": ["1503 1st Ave", "Seattle, WA 98101"]}, "phone": "+12066821598", "display_phone": "(206) 682-1598", "distance": 1860.4812273609377}, {"id": "oq5KCmPFKV28BnB4hjpo_g", "alias": "lola-seattle", "name": "Lola", "image_url": "https://s3-media4.fl.yelpcdn.com/bphoto/cLKE6YHMBsM-hgxNwrmeFA/o.jpg", "is_closed": false, "url": "https://www.yelp.com/biz/lola-seattle?adjust_creative=TpLShpR2csZ2AtLGvsRWXw&utm_campaign=yelp_api_v3&utm_medium=api_v3_business_search&utm_source=TpLShpR2csZ2AtLGvsRWXw", "review_count": 3282, "categories": [{"alias": "greek", "title": "Greek"}, {"alias": "mediterranean", "title": "Mediterranean"}, {"alias": "breakfast_brunch", "title": "Breakfast & Brunch"}], "rating": 4.0, "coordinates": {"latitude": 47.6132519777742, "longitude": -122.340060726984}, "transactions": [], "price": "$$", "location": {"address1": "2000 4th Ave", "address2": null, "address3": "", "city": "Seattle", "zip_code": "98121", "country": "US", "state": "WA", "display_address": ["2000 4th Ave", "Seattle, WA 98121"]}, "phone": "+12064411430", "display_phone": "(206) 441-1430", "distance": 1395.2430254498822}, {"id": "-FOAQv22SXtSBs7nptI3UA", "alias": "serious-pie-seattle", "name": "Serious Pie", "image_url": "https://s3-media1.fl.yelpcdn.com/bphoto/gp6dXIKMLtoaba4Qg2S-BQ/o.jpg", "is_closed": false, "url": "https://www.yelp.com/biz/serious-pie-seattle?adjust_creative=TpLShpR2csZ2AtLGvsRWXw&utm_campaign=yelp_api_v3&utm_medium=api_v3_business_search&utm_source=TpLShpR2csZ2AtLGvsRWXw", "review_count": 3641, "categories": [{"alias": "pizza", "title": "Pizza"}], "rating": 4.0, "coordinates": {"latitude": 47.61296, "longitude": -122.34047}, "transactions": [], "price": "$$", "location": {"address1": "316 Virginia St", "address2": null, "address3": "", "city": "Seattle", "zip_code": "98121", "country": "US", "state": "WA", "display_address": ["316 Virginia St", "Seattle, WA 98121"]}, "phone": "+12068387388", "display_phone": "(206) 838-7388", "distance": 1443.3390452329982}, {"id": "L8RRAd-JZ0Bd4MER0yyX-g", "alias": "japonessa-seattle-4", "name": "Japonessa", "image_url": "https://s3-media3.fl.yelpcdn.com/bphoto/vucCrknnlu1RRvRaKWwovQ/o.jpg", "is_closed": false, "url": "https://www.yelp.com/biz/japonessa-seattle-4?adjust_creative=TpLShpR2csZ2AtLGvsRWXw&utm_campaign=yelp_api_v3&utm_medium=api_v3_business_search&utm_source=TpLShpR2csZ2AtLGvsRWXw", "review_count": 3787, "categories": [{"alias": "japanese", "title": "Japanese"}, {"alias": "sushi", "title": "Sushi Bars"}], "rating": 4.0, "coordinates": {"latitude": 47.60809, "longitude": -122.33899}, "transactions": [], "price": "$$", "location": {"address1": "1400 1st Ave", "address2": "", "address3": "", "city": "Seattle", "zip_code": "98101", "country": "US", "state": "WA", "display_address": ["1400 1st Ave", "Seattle, WA 98101"]}, "phone": "+12069717979", "display_phone": "(206) 971-7979", "distance": 1952.6052565732227}, {"id": "r2qcG59sAqqptnwL4aJGhg", "alias": "toulouse-petit-kitchen-and-lounge-seattle", "name": "Toulouse Petit Kitchen & Lounge", "image_url": "https://s3-media1.fl.yelpcdn.com/bphoto/UmEDw1vIvHMNagxlZspJ9A/o.jpg", "is_closed": false, "url": "https://www.yelp.com/biz/toulouse-petit-kitchen-and-lounge-seattle?adjust_creative=TpLShpR2csZ2AtLGvsRWXw&utm_campaign=yelp_api_v3&utm_medium=api_v3_business_search&utm_source=TpLShpR2csZ2AtLGvsRWXw", "review_count": 3370, "categories": [{"alias": "cajun", "title": "Cajun/Creole"}, {"alias": "bars", "title": "Bars"}], "rating": 4.0, "coordinates": {"latitude": 47.624851, "longitude": -122.357127}, "transactions": [], "price": "$$", "location": {"address1": "601 Queen Anne Ave N", "address2": "", "address3": "", "city": "Seattle", "zip_code": "98109", "country": "US", "state": "WA", "display_address": ["601 Queen Anne Ave N", "Seattle, WA 98109"]}, "phone": "+12064329069", "display_phone": "(206) 432-9069", "distance": 1621.252370096682}, {"id": "Eh-7d5coQltQfQWAtWnPyg", "alias": "le-panier-french-bakery-seattle", "name": "Le Panier French Bakery", "image_url": "https://s3-media1.fl.yelpcdn.com/bphoto/FOI1896xDO-yFXgNp7t_gA/o.jpg", "is_closed": false, "url": "https://www.yelp.com/biz/le-panier-french-bakery-seattle?adjust_creative=TpLShpR2csZ2AtLGvsRWXw&utm_campaign=yelp_api_v3&utm_medium=api_v3_business_search&utm_source=TpLShpR2csZ2AtLGvsRWXw", "review_count": 1981, "categories": [{"alias": "bakeries", "title": "Bakeries"}, {"alias": "sandwiches", "title": "Sandwiches"}, {"alias": "cakeshop", "title": "Patisserie/Cake Shop"}], "rating": 4.5, "coordinates": {"latitude": 47.6098933070898, "longitude": -122.342474609613}, "transactions": [], "price": "$", "location": {"address1": "1902 Pike Pl", "address2": "", "address3": "", "city": "Seattle", "zip_code": "98101", "country": "US", "state": "WA", "display_address": ["1902 Pike Pl", "Seattle, WA 98101"]}, "phone": "+12064413669", "display_phone": "(206) 441-3669", "distance": 1798.924933475504}, {"id": "6ZKNFPLWRIVWshUkMNlgng", "alias": "starbucks-reserve-roastery-and-tasting-room-seattle-3", "name": "Starbucks Reserve Roastery & Tasting Room", "image_url": "https://s3-media3.fl.yelpcdn.com/bphoto/7rnXd0XYWAS44aGYiQMIPg/o.jpg", "is_closed": false, "url": "https://www.yelp.com/biz/starbucks-reserve-roastery-and-tasting-room-seattle-3?adjust_creative=TpLShpR2csZ2AtLGvsRWXw&utm_campaign=yelp_api_v3&utm_medium=api_v3_business_search&utm_source=TpLShpR2csZ2AtLGvsRWXw", "review_count": 1854, "categories": [{"alias": "coffee", "title": "Coffee & Tea"}, {"alias": "coffeeroasteries", "title": "Coffee Roasteries"}], "rating": 4.5, "coordinates": {"latitude": 47.6140014481935, "longitude": -122.328058406711}, "transactions": [], "price": "$$", "location": {"address1": "1124 Pike St", "address2": "", "address3": "", "city": "Seattle", "zip_code": "98101", "country": "US", "state": "WA", "display_address": ["1124 Pike St", "Seattle, WA 98101"]}, "phone": "+12066240173", "display_phone": "(206) 624-0173", "distance": 1387.0015216886272}, {"id": "EWrDx-M8HJpR0wVJHrflNg", "alias": "umi-sake-house-seattle", "name": "Umi Sake House", "image_url": "https://s3-media3.fl.yelpcdn.com/bphoto/c-XwgpadB530bjPUAL7oFw/o.jpg", "is_closed": false, "url": "https://www.yelp.com/biz/umi-sake-house-seattle?adjust_creative=TpLShpR2csZ2AtLGvsRWXw&utm_campaign=yelp_api_v3&utm_medium=api_v3_business_search&utm_source=TpLShpR2csZ2AtLGvsRWXw", "review_count": 3005, "categories": [{"alias": "sushi", "title": "Sushi Bars"}, {"alias": "japanese", "title": "Japanese"}], "rating": 4.0, "coordinates": {"latitude": 47.61339, "longitude": -122.34597}, "transactions": [], "price": "$$", "location": {"address1": "2230 1st Ave", "address2": null, "address3": "", "city": "Seattle", "zip_code": "98121", "country": "US", "state": "WA", "display_address": ["2230 1st Ave", "Seattle, WA 98121"]}, "phone": "+12063748717", "display_phone": "(206) 374-8717", "distance": 1558.156143274447}, {"id": "mNdz7zdezTkiuk8S-cIKxg", "alias": "beechers-handmade-cheese-seattle", "name": "Beecher's Handmade Cheese", "image_url": "https://s3-media2.fl.yelpcdn.com/bphoto/4JpY1_1huDK_r17BQljerQ/o.jpg", "is_closed": false, "url": "https://www.yelp.com/biz/beechers-handmade-cheese-seattle?adjust_creative=TpLShpR2csZ2AtLGvsRWXw&utm_campaign=yelp_api_v3&utm_medium=api_v3_business_search&utm_source=TpLShpR2csZ2AtLGvsRWXw", "review_count": 2213, "categories": [{"alias": "cheese", "title": "Cheese Shops"}, {"alias": "sandwiches", "title": "Sandwiches"}], "rating": 4.0, "coordinates": {"latitude": 47.60963, "longitude": -122.34179}, "transactions": [], "price": "$", "location": {"address1": "1600 Pike Pl", "address2": "", "address3": "", "city": "Seattle", "zip_code": "98101", "country": "US", "state": "WA", "display_address": ["1600 Pike Pl", "Seattle, WA 98101"]}, "phone": "+12069561964", "display_phone": "(206) 956-1964", "distance": 1820.511358411254}, {"id": "pzjQKP3PEkclhSD-mFn7jA", "alias": "tacos-chukis-seattle", "name": "Tacos Chukis", "image_url": "https://s3-media1.fl.yelpcdn.com/bphoto/GbRjSWd2JdJF9D8ws2uXug/o.jpg", "is_closed": false, "url": "https://www.yelp.com/biz/tacos-chukis-seattle?adjust_creative=TpLShpR2csZ2AtLGvsRWXw&utm_campaign=yelp_api_v3&utm_medium=api_v3_business_search&utm_source=TpLShpR2csZ2AtLGvsRWXw", "review_count": 1245, "categories": [{"alias": "mexican", "title": "Mexican"}, {"alias": "sandwiches", "title": "Sandwiches"}], "rating": 4.5, "coordinates": {"latitude": 47.620570445175, "longitude": -122.321262359619}, "transactions": [], "price": "$", "location": {"address1": "219 Broadway E", "address2": "", "address3": "", "city": "Seattle", "zip_code": "98102", "country": "US", "state": "WA", "display_address": ["219 Broadway E", "Seattle, WA 98102"]}, "phone": "+12063284447", "display_phone": "(206) 328-4447", "distance": 1196.2087504042854}, {"id": "YSQiqH7RIWORk_Qp-A4SOg", "alias": "shiros-seattle", "name": "Shiro's", "image_url": "https://s3-media3.fl.yelpcdn.com/bphoto/f10Z1r4_R95ylcZwUS3LRA/o.jpg", "is_closed": false, "url": "https://www.yelp.com/biz/shiros-seattle?adjust_creative=TpLShpR2csZ2AtLGvsRWXw&utm_campaign=yelp_api_v3&utm_medium=api_v3_business_search&utm_source=TpLShpR2csZ2AtLGvsRWXw", "review_count": 1794, "categories": [{"alias": "sushi", "title": "Sushi Bars"}, {"alias": "japanese", "title": "Japanese"}], "rating": 4.5, "coordinates": {"latitude": 47.6147782162181, "longitude": -122.347327076057}, "transactions": [], "price": "$$$", "location": {"address1": "2401 2nd Ave", "address2": "", "address3": "", "city": "Seattle", "zip_code": "98121", "country": "US", "state": "WA", "display_address": ["2401 2nd Ave", "Seattle, WA 98121"]}, "phone": "+12064439844", "display_phone": "(206) 443-9844", "distance": 1477.968059469536}, {"id": "09FLRYnePKcUwGDDPIOAkg", "alias": "biscuit-bitch-seattle", "name": "Biscuit Bitch", "image_url": "https://s3-media4.fl.yelpcdn.com/bphoto/z1xwuEXyQyAqmAlJzWH8sg/o.jpg", "is_closed": false, "url": "https://www.yelp.com/biz/biscuit-bitch-seattle?adjust_creative=TpLShpR2csZ2AtLGvsRWXw&utm_campaign=yelp_api_v3&utm_medium=api_v3_business_search&utm_source=TpLShpR2csZ2AtLGvsRWXw", "review_count": 2615, "categories": [{"alias": "breakfast_brunch", "title": "Breakfast & Brunch"}, {"alias": "coffee", "title": "Coffee & Tea"}, {"alias": "sandwiches", "title": "Sandwiches"}], "rating": 4.0, "coordinates": {"latitude": 47.61034, "longitude": -122.34167}, "transactions": [], "price": "$", "location": {"address1": "1909 1st Ave", "address2": "", "address3": "", "city": "Seattle", "zip_code": "98101", "country": "US", "state": "WA", "display_address": ["1909 1st Ave", "Seattle, WA 98101"]}, "phone": "+12064417999", "display_phone": "(206) 441-7999", "distance": 1736.5798741313542}, {"id": "T7XmistL2pQrW3hY3oTpng", "alias": "salumi-artisan-cured-meats-seattle-2", "name": "Salumi Artisan Cured Meats", "image_url": "https://s3-media2.fl.yelpcdn.com/bphoto/VCQn-Lyz4NFzw4VmcTjUqg/o.jpg", "is_closed": false, "url": "https://www.yelp.com/biz/salumi-artisan-cured-meats-seattle-2?adjust_creative=TpLShpR2csZ2AtLGvsRWXw&utm_campaign=yelp_api_v3&utm_medium=api_v3_business_search&utm_source=TpLShpR2csZ2AtLGvsRWXw", "review_count": 1251, "categories": [{"alias": "italian", "title": "Italian"}, {"alias": "sandwiches", "title": "Sandwiches"}, {"alias": "meats", "title": "Meat Shops"}], "rating": 4.5, "coordinates": {"latitude": 47.59969, "longitude": -122.33058}, "transactions": [], "price": "$$", "location": {"address1": "309 3rd Ave S", "address2": "", "address3": "", "city": "Seattle", "zip_code": "98104", "country": "US", "state": "WA", "display_address": ["309 3rd Ave S", "Seattle, WA 98104"]}, "phone": "+12066218772", "display_phone": "(206) 621-8772", "distance": 2881.0275708761537}, {"id": "FVzl8rDPiTWEtrNEuCu-Xg", "alias": "storyville-coffee-company-seattle-9", "name": "Storyville Coffee Company", "image_url": "https://s3-media3.fl.yelpcdn.com/bphoto/nJgiyjMZ7sglAtc5wyKSLQ/o.jpg", "is_closed": false, "url": "https://www.yelp.com/biz/storyville-coffee-company-seattle-9?adjust_creative=TpLShpR2csZ2AtLGvsRWXw&utm_campaign=yelp_api_v3&utm_medium=api_v3_business_search&utm_source=TpLShpR2csZ2AtLGvsRWXw", "review_count": 1107, "categories": [{"alias": "coffee", "title": "Coffee & Tea"}], "rating": 4.5, "coordinates": {"latitude": 47.6088847, "longitude": -122.3403957}, "transactions": ["delivery", "pickup"], "price": "$$", "location": {"address1": "94 Pike St", "address2": "Ste 34", "address3": "", "city": "Seattle", "zip_code": "98101", "country": "US", "state": "WA", "display_address": ["94 Pike St", "Ste 34", "Seattle, WA 98101"]}, "phone": "+12067805777", "display_phone": "(206) 780-5777", "distance": 1874.6459036561484}, {"id": "NXxA6Q0FP-G9kZQx4gngEg", "alias": "kerry-park-seattle", "name": "Kerry Park", "image_url": "https://s3-media2.fl.yelpcdn.com/bphoto/L3QtZKZ6oR5kSPafBYVK0w/o.jpg", "is_closed": false, "url": "https://www.yelp.com/biz/kerry-park-seattle?adjust_creative=TpLShpR2csZ2AtLGvsRWXw&utm_campaign=yelp_api_v3&utm_medium=api_v3_business_search&utm_source=TpLShpR2csZ2AtLGvsRWXw", "review_count": 785, "categories": [{"alias": "parks", "title": "Parks"}, {"alias": "playgrounds", "title": "Playgrounds"}], "rating": 4.5, "coordinates": {"latitude": 47.6295290887356, "longitude": -122.359552904963}, "transactions": [], "location": {"address1": "211 W Highland Dr", "address2": "", "address3": "", "city": "Seattle", "zip_code": "98119", "country": "US", "state": "WA", "display_address": ["211 W Highland Dr", "Seattle, WA 98119"]}, "phone": "+12066844075", "display_phone": "(206) 684-4075", "distance": 1883.779649353524}, {"id": "xqH038QcquJEMm5LIZHd5w", "alias": "elliotts-oyster-house-seattle-2", "name": "Elliott's Oyster House", "image_url": "https://s3-media3.fl.yelpcdn.com/bphoto/Am6AabmBhkHHqrGRSg2clQ/o.jpg", "is_closed": false, "url": "https://www.yelp.com/biz/elliotts-oyster-house-seattle-2?adjust_creative=TpLShpR2csZ2AtLGvsRWXw&utm_campaign=yelp_api_v3&utm_medium=api_v3_business_search&utm_source=TpLShpR2csZ2AtLGvsRWXw", "review_count": 2738, "categories": [{"alias": "seafood", "title": "Seafood"}], "rating": 4.0, "coordinates": {"latitude": 47.6054699, "longitude": -122.34092}, "transactions": [], "price": "$$$", "location": {"address1": "1201 Alaskan Way", "address2": "", "address3": "Pier 56", "city": "Seattle", "zip_code": "98101", "country": "US", "state": "WA", "display_address": ["1201 Alaskan Way", "Pier 56", "Seattle, WA 98101"]}, "phone": "+12066234340", "display_phone": "(206) 623-4340", "distance": 2260.1319728847657}], [{"id": "EyUNJ7XRm99w3W8wHzR45A", "alias": "wild-sage-bistro-spokane", "name": "Wild Sage Bistro", "image_url": "https://s3-media2.fl.yelpcdn.com/bphoto/EN-aD1fzdX8ltPDMGt_N6Q/o.jpg", "is_closed": false, "url": "https://www.yelp.com/biz/wild-sage-bistro-spokane?adjust_creative=TpLShpR2csZ2AtLGvsRWXw&utm_campaign=yelp_api_v3&utm_medium=api_v3_business_search&utm_source=TpLShpR2csZ2AtLGvsRWXw", "review_count": 443, "categories": [{"alias": "newamerican", "title": "American (New)"}, {"alias": "cocktailbars", "title": "Cocktail Bars"}, {"alias": "gluten_free", "title": "Gluten-Free"}], "rating": 4.5, "coordinates": {"latitude": 47.6545393466949, "longitude": -117.425401434302}, "transactions": [], "price": "$$$", "location": {"address1": "916 W 2nd Ave", "address2": "", "address3": "", "city": "Spokane", "zip_code": "99201", "country": "US", "state": "WA", "display_address": ["916 W 2nd Ave", "Spokane, WA 99201"]}, "phone": "+15094567575", "display_phone": "(509) 456-7575", "distance": 2866.788655661217}, {"id": "ir6pxJt3IbCS99mDktv81g", "alias": "franks-diner-spokane", "name": "Frank's Diner", "image_url": "https://s3-media4.fl.yelpcdn.com/bphoto/_ym3inQVGRujynajHj88IQ/o.jpg", "is_closed": false, "url": "https://www.yelp.com/biz/franks-diner-spokane?adjust_creative=TpLShpR2csZ2AtLGvsRWXw&utm_campaign=yelp_api_v3&utm_medium=api_v3_business_search&utm_source=TpLShpR2csZ2AtLGvsRWXw", "review_count": 642, "categories": [{"alias": "diners", "title": "Diners"}, {"alias": "breakfast_brunch", "title": "Breakfast & Brunch"}, {"alias": "sandwiches", "title": "Sandwiches"}], "rating": 4.5, "coordinates": {"latitude": 47.65464, "longitude": -117.43461}, "transactions": [], "price": "$$", "location": {"address1": "1516 W 2nd Ave", "address2": "", "address3": "", "city": "Spokane", "zip_code": "99204", "country": "US", "state": "WA", "display_address": ["1516 W 2nd Ave", "Spokane, WA 99204"]}, "phone": "+15097478798", "display_phone": "(509) 747-8798", "distance": 3249.8710764926604}, {"id": "Rj3mAvjnKrrQ1ujFba_63g", "alias": "the-flying-goat-spokane", "name": "The Flying Goat", "image_url": "https://s3-media3.fl.yelpcdn.com/bphoto/KE2M_neon-Fs8pwHybcHTg/o.jpg", "is_closed": false, "url": "https://www.yelp.com/biz/the-flying-goat-spokane?adjust_creative=TpLShpR2csZ2AtLGvsRWXw&utm_campaign=yelp_api_v3&utm_medium=api_v3_business_search&utm_source=TpLShpR2csZ2AtLGvsRWXw", "review_count": 477, "categories": [{"alias": "bars", "title": "Bars"}, {"alias": "gastropubs", "title": "Gastropubs"}, {"alias": "pizza", "title": "Pizza"}], "rating": 4.5, "coordinates": {"latitude": 47.690699, "longitude": -117.460266}, "transactions": [], "price": "$$", "location": {"address1": "3318 W Northwest Blvd", "address2": "", "address3": "", "city": "Spokane", "zip_code": "99205", "country": "US", "state": "WA", "display_address": ["3318 W Northwest Blvd", "Spokane, WA 99205"]}, "phone": "+15093278277", "display_phone": "(509) 327-8277", "distance": 4275.814664257608}, {"id": "oVA-wu2e3a-DWzZdWo_Aqg", "alias": "mizuna-spokane", "name": "Mizuna", "image_url": "https://s3-media2.fl.yelpcdn.com/bphoto/YZVZo6egPr1iwLbHt06RaA/o.jpg", "is_closed": false, "url": "https://www.yelp.com/biz/mizuna-spokane?adjust_creative=TpLShpR2csZ2AtLGvsRWXw&utm_campaign=yelp_api_v3&utm_medium=api_v3_business_search&utm_source=TpLShpR2csZ2AtLGvsRWXw", "review_count": 346, "categories": [{"alias": "newamerican", "title": "American (New)"}, {"alias": "vegan", "title": "Vegan"}, {"alias": "cocktailbars", "title": "Cocktail Bars"}], "rating": 4.0, "coordinates": {"latitude": 47.65954, "longitude": -117.42078}, "transactions": ["restaurant_reservation"], "price": "$$", "location": {"address1": "214 N Howard St", "address2": "", "address3": "", "city": "Spokane", "zip_code": "99201", "country": "US", "state": "WA", "display_address": ["214 N Howard St", "Spokane, WA 99201"]}, "phone": "+15097472004", "display_phone": "(509) 747-2004", "distance": 2231.329878756263}, {"id": "lBg1rbmKIutK-HvJMbt9vw", "alias": "sante-restaurant-and-charcuterie-spokane", "name": "Sante Restaurant & Charcuterie", "image_url": "https://s3-media1.fl.yelpcdn.com/bphoto/3cWoFf47PcsU2XBJdJOhhw/o.jpg", "is_closed": false, "url": "https://www.yelp.com/biz/sante-restaurant-and-charcuterie-spokane?adjust_creative=TpLShpR2csZ2AtLGvsRWXw&utm_campaign=yelp_api_v3&utm_medium=api_v3_business_search&utm_source=TpLShpR2csZ2AtLGvsRWXw", "review_count": 324, "categories": [{"alias": "french", "title": "French"}, {"alias": "newamerican", "title": "American (New)"}, {"alias": "breakfast_brunch", "title": "Breakfast & Brunch"}], "rating": 4.0, "coordinates": {"latitude": 47.6594, "longitude": -117.41842}, "transactions": [], "price": "$$", "location": {"address1": "404 W Main Ave", "address2": "", "address3": "", "city": "Spokane", "zip_code": "99201", "country": "US", "state": "WA", "display_address": ["404 W Main Ave", "Spokane, WA 99201"]}, "phone": "+15093154613", "display_phone": "(509) 315-4613", "distance": 2165.1738417928095}, {"id": "Dl3CFFQDbHusXhSmh9kSZQ", "alias": "nudo-ramen-house-spokane", "name": "Nudo Ramen House", "image_url": "https://s3-media3.fl.yelpcdn.com/bphoto/d0AKPVlud3GesKuvi7VpkA/o.jpg", "is_closed": false, "url": "https://www.yelp.com/biz/nudo-ramen-house-spokane?adjust_creative=TpLShpR2csZ2AtLGvsRWXw&utm_campaign=yelp_api_v3&utm_medium=api_v3_business_search&utm_source=TpLShpR2csZ2AtLGvsRWXw", "review_count": 424, "categories": [{"alias": "asianfusion", "title": "Asian Fusion"}, {"alias": "ramen", "title": "Ramen"}], "rating": 4.0, "coordinates": {"latitude": 47.6572851, "longitude": -117.4243793}, "transactions": [], "price": "$$", "location": {"address1": "818 W Sprague Ave", "address2": "", "address3": "", "city": "Spokane", "zip_code": "99201", "country": "US", "state": "WA", "display_address": ["818 W Sprague Ave", "Spokane, WA 99201"]}, "phone": "+15092905763", "display_phone": "(509) 290-5763", "distance": 2579.7149025246053}, {"id": "zA2YdjEtT-LZWSe4N4lYYQ", "alias": "boots-bakery-and-lounge-spokane", "name": "Boots Bakery & Lounge", "image_url": "https://s3-media2.fl.yelpcdn.com/bphoto/sisovarGr9mOZS1SEc4zJw/o.jpg", "is_closed": false, "url": "https://www.yelp.com/biz/boots-bakery-and-lounge-spokane?adjust_creative=TpLShpR2csZ2AtLGvsRWXw&utm_campaign=yelp_api_v3&utm_medium=api_v3_business_search&utm_source=TpLShpR2csZ2AtLGvsRWXw", "review_count": 262, "categories": [{"alias": "bakeries", "title": "Bakeries"}, {"alias": "lounges", "title": "Lounges"}, {"alias": "vegan", "title": "Vegan"}], "rating": 4.5, "coordinates": {"latitude": 47.65942, "longitude": -117.412201}, "transactions": [], "price": "$$", "location": {"address1": "24 W Main Ave", "address2": "", "address3": "", "city": "Spokane", "zip_code": "99201", "country": "US", "state": "WA", "display_address": ["24 W Main Ave", "Spokane, WA 99201"]}, "phone": "+15097037223", "display_phone": "(509) 703-7223", "distance": 2021.0723165442796}, {"id": "mh-nm0AgR1J1rbQ28U9J6w", "alias": "soulful-soups-and-spirits-spokane", "name": "Soulful Soups and Spirits", "image_url": "https://s3-media2.fl.yelpcdn.com/bphoto/0qTo0ktehcCKsYc5l1NKpg/o.jpg", "is_closed": false, "url": "https://www.yelp.com/biz/soulful-soups-and-spirits-spokane?adjust_creative=TpLShpR2csZ2AtLGvsRWXw&utm_campaign=yelp_api_v3&utm_medium=api_v3_business_search&utm_source=TpLShpR2csZ2AtLGvsRWXw", "review_count": 185, "categories": [{"alias": "tradamerican", "title": "American (Traditional)"}, {"alias": "lounges", "title": "Lounges"}, {"alias": "pubs", "title": "Pubs"}], "rating": 4.5, "coordinates": {"latitude": 47.6585464477539, "longitude": -117.421348571777}, "transactions": [], "price": "$", "location": {"address1": "117 N Howard St", "address2": "", "address3": "", "city": "Spokane", "zip_code": "99201", "country": "US", "state": "WA", "display_address": ["117 N Howard St", "Spokane, WA 99201"]}, "phone": "+15094591190", "display_phone": "(509) 459-1190", "distance": 2347.0858671070323}, {"id": "jMcTlMuCDMTM27OpkVYIcQ", "alias": "queen-of-sheba-ethiopian-cuisine-spokane-3", "name": "Queen of Sheba Ethiopian Cuisine", "image_url": "https://s3-media2.fl.yelpcdn.com/bphoto/fWBKlEmSInrzSqDRSdwVPQ/o.jpg", "is_closed": false, "url": "https://www.yelp.com/biz/queen-of-sheba-ethiopian-cuisine-spokane-3?adjust_creative=TpLShpR2csZ2AtLGvsRWXw&utm_campaign=yelp_api_v3&utm_medium=api_v3_business_search&utm_source=TpLShpR2csZ2AtLGvsRWXw", "review_count": 171, "categories": [{"alias": "ethiopian", "title": "Ethiopian"}, {"alias": "desserts", "title": "Desserts"}, {"alias": "coffee", "title": "Coffee & Tea"}], "rating": 4.5, "coordinates": {"latitude": 47.6649208068848, "longitude": -117.422409057617}, "transactions": [], "price": "$$", "location": {"address1": "621 W Mallon Ave", "address2": "Ste 426", "address3": "", "city": "Spokane", "zip_code": "99201", "country": "US", "state": "WA", "display_address": ["621 W Mallon Ave", "Ste 426", "Spokane, WA 99201"]}, "phone": "+15093283958", "display_phone": "(509) 328-3958", "distance": 1774.3954856043408}, {"id": "1k_thqlxhYnY_7ePIgnlyg", "alias": "clover-spokane", "name": "Clover", "image_url": "https://s3-media1.fl.yelpcdn.com/bphoto/cxKtq-hLET-WCMUX2iK2SA/o.jpg", "is_closed": false, "url": "https://www.yelp.com/biz/clover-spokane?adjust_creative=TpLShpR2csZ2AtLGvsRWXw&utm_campaign=yelp_api_v3&utm_medium=api_v3_business_search&utm_source=TpLShpR2csZ2AtLGvsRWXw", "review_count": 248, "categories": [{"alias": "newamerican", "title": "American (New)"}, {"alias": "cocktailbars", "title": "Cocktail Bars"}, {"alias": "breakfast_brunch", "title": "Breakfast & Brunch"}], "rating": 4.5, "coordinates": {"latitude": 47.66974, "longitude": -117.39576}, "transactions": [], "price": "$$", "location": {"address1": "913 E Sharp Ave", "address2": "", "address3": "", "city": "Spokane", "zip_code": "99202", "country": "US", "state": "WA", "display_address": ["913 E Sharp Ave", "Spokane, WA 99202"]}, "phone": "+15094872937", "display_phone": "(509) 487-2937", "distance": 1161.7908421920174}, {"id": "HGyzYy5Ih9Vd2As383guSg", "alias": "atticus-coffee-and-gifts-spokane", "name": "Atticus Coffee & Gifts", "image_url": "https://s3-media3.fl.yelpcdn.com/bphoto/82U8gu8QTyXkDC2v6qmx1Q/o.jpg", "is_closed": false, "url": "https://www.yelp.com/biz/atticus-coffee-and-gifts-spokane?adjust_creative=TpLShpR2csZ2AtLGvsRWXw&utm_campaign=yelp_api_v3&utm_medium=api_v3_business_search&utm_source=TpLShpR2csZ2AtLGvsRWXw", "review_count": 198, "categories": [{"alias": "coffee", "title": "Coffee & Tea"}, {"alias": "bakeries", "title": "Bakeries"}, {"alias": "bookstores", "title": "Bookstores"}], "rating": 4.5, "coordinates": {"latitude": 47.6598, "longitude": -117.42077}, "transactions": [], "price": "$", "location": {"address1": "222 N Howard St", "address2": null, "address3": "", "city": "Spokane", "zip_code": "99201", "country": "US", "state": "WA", "display_address": ["222 N Howard St", "Spokane, WA 99201"]}, "phone": "+15097470336", "display_phone": "(509) 747-0336", "distance": 2211.6995899649282}, {"id": "qUr2Tp7MrOyyHcLsbH6qoA", "alias": "the-satellite-diner-spokane", "name": "The Satellite Diner", "image_url": "https://s3-media2.fl.yelpcdn.com/bphoto/__OnX0CXDuxWxNkjkQqnNA/o.jpg", "is_closed": false, "url": "https://www.yelp.com/biz/the-satellite-diner-spokane?adjust_creative=TpLShpR2csZ2AtLGvsRWXw&utm_campaign=yelp_api_v3&utm_medium=api_v3_business_search&utm_source=TpLShpR2csZ2AtLGvsRWXw", "review_count": 366, "categories": [{"alias": "breakfast_brunch", "title": "Breakfast & Brunch"}, {"alias": "tradamerican", "title": "American (Traditional)"}, {"alias": "diners", "title": "Diners"}], "rating": 4.0, "coordinates": {"latitude": 47.65687, "longitude": -117.41918}, "transactions": [], "price": "$$", "location": {"address1": "425 W Sprague Ave", "address2": "", "address3": "", "city": "Spokane", "zip_code": "99201", "country": "US", "state": "WA", "display_address": ["425 W Sprague Ave", "Spokane, WA 99201"]}, "phone": "+15096243952", "display_phone": "(509) 624-3952", "distance": 2452.2835809507606}, {"id": "xZxV5o5C1iMJHY7l9_rrlA", "alias": "riverfront-park-spokane", "name": "Riverfront Park", "image_url": "https://s3-media1.fl.yelpcdn.com/bphoto/Q-0C5SEthzVhWqZQjkxetQ/o.jpg", "is_closed": false, "url": "https://www.yelp.com/biz/riverfront-park-spokane?adjust_creative=TpLShpR2csZ2AtLGvsRWXw&utm_campaign=yelp_api_v3&utm_medium=api_v3_business_search&utm_source=TpLShpR2csZ2AtLGvsRWXw", "review_count": 128, "categories": [{"alias": "parks", "title": "Parks"}], "rating": 4.5, "coordinates": {"latitude": 47.6622104644775, "longitude": -117.42128290236}, "transactions": [], "location": {"address1": "507 N Howard St", "address2": "", "address3": "", "city": "Spokane", "zip_code": "99201", "country": "US", "state": "WA", "display_address": ["507 N Howard St", "Spokane, WA 99201"]}, "phone": "+15094564386", "display_phone": "(509) 456-4386", "distance": 2102.5548924935574}, {"id": "iuAf5MQpez5M507MYIXmew", "alias": "manito-park-spokane", "name": "Manito Park", "image_url": "https://s3-media3.fl.yelpcdn.com/bphoto/z1U9YS5lUc1PsRjq7sF4LQ/o.jpg", "is_closed": false, "url": "https://www.yelp.com/biz/manito-park-spokane?adjust_creative=TpLShpR2csZ2AtLGvsRWXw&utm_campaign=yelp_api_v3&utm_medium=api_v3_business_search&utm_source=TpLShpR2csZ2AtLGvsRWXw", "review_count": 90, "categories": [{"alias": "parks", "title": "Parks"}, {"alias": "gardens", "title": "Botanical Gardens"}, {"alias": "landmarks", "title": "Landmarks & Historical Buildings"}], "rating": 5.0, "coordinates": {"latitude": 47.64002, "longitude": -117.40764}, "transactions": [], "location": {"address1": "17TH And Grand", "address2": null, "address3": "", "city": "Spokane", "zip_code": "99203", "country": "US", "state": "WA", "display_address": ["17TH And Grand", "Spokane, WA 99203"]}, "phone": "", "display_phone": "", "distance": 4137.71182868664}, {"id": "JxgwjZkxbuc79-mBpW9GIw", "alias": "the-blackbird-spokane", "name": "The Blackbird", "image_url": "https://s3-media3.fl.yelpcdn.com/bphoto/N0sLY-QRqMzSjiBaCx7jFg/o.jpg", "is_closed": false, "url": "https://www.yelp.com/biz/the-blackbird-spokane?adjust_creative=TpLShpR2csZ2AtLGvsRWXw&utm_campaign=yelp_api_v3&utm_medium=api_v3_business_search&utm_source=TpLShpR2csZ2AtLGvsRWXw", "review_count": 508, "categories": [{"alias": "newamerican", "title": "American (New)"}, {"alias": "gastropubs", "title": "Gastropubs"}, {"alias": "beerbar", "title": "Beer Bar"}], "rating": 4.0, "coordinates": {"latitude": 47.6657094, "longitude": -117.4176381}, "transactions": [], "price": "$$", "location": {"address1": "905 N Washington St", "address2": null, "address3": null, "city": "Spokane", "zip_code": "99201", "country": "US", "state": "WA", "display_address": ["905 N Washington St", "Spokane, WA 99201"]}, "phone": "+15093812473", "display_phone": "(509) 381-2473", "distance": 1542.0823839345974}, {"id": "ujIOuiYnTAFbAJxxs4dMJg", "alias": "the-elk-public-house-spokane", "name": "The Elk Public House", "image_url": "https://s3-media2.fl.yelpcdn.com/bphoto/CVKzNFCHvWw_1NEreflVbw/o.jpg", "is_closed": false, "url": "https://www.yelp.com/biz/the-elk-public-house-spokane?adjust_creative=TpLShpR2csZ2AtLGvsRWXw&utm_campaign=yelp_api_v3&utm_medium=api_v3_business_search&utm_source=TpLShpR2csZ2AtLGvsRWXw", "review_count": 371, "categories": [{"alias": "pubs", "title": "Pubs"}, {"alias": "newamerican", "title": "American (New)"}], "rating": 4.0, "coordinates": {"latitude": 47.6552848815918, "longitude": -117.441345214844}, "transactions": [], "price": "$$", "location": {"address1": "1931 W Pacific Ave", "address2": "", "address3": "", "city": "Spokane", "zip_code": "99201", "country": "US", "state": "WA", "display_address": ["1931 W Pacific Ave", "Spokane, WA 99201"]}, "phone": "+15093631973", "display_phone": "(509) 363-1973", "distance": 3561.1985364676902}, {"id": "n8Lt_xiPZJ5NpkvIhs7ASg", "alias": "chaps-coffee-spokane", "name": "Chaps Coffee", "image_url": "https://s3-media4.fl.yelpcdn.com/bphoto/Pri3zW5qeH-08OT0HYOaKQ/o.jpg", "is_closed": false, "url": "https://www.yelp.com/biz/chaps-coffee-spokane?adjust_creative=TpLShpR2csZ2AtLGvsRWXw&utm_campaign=yelp_api_v3&utm_medium=api_v3_business_search&utm_source=TpLShpR2csZ2AtLGvsRWXw", "review_count": 321, "categories": [{"alias": "bakeries", "title": "Bakeries"}, {"alias": "breakfast_brunch", "title": "Breakfast & Brunch"}, {"alias": "tradamerican", "title": "American (Traditional)"}], "rating": 4.0, "coordinates": {"latitude": 47.6148227219713, "longitude": -117.428399913214}, "transactions": [], "price": "$$", "location": {"address1": "4235 S Cheney Spokane Rd", "address2": "", "address3": "", "city": "Spokane", "zip_code": "99256", "country": "US", "state": "WA", "display_address": ["4235 S Cheney Spokane Rd", "Spokane, WA 99256"]}, "phone": "+15096244182", "display_phone": "(509) 624-4182", "distance": 7125.485537957902}, {"id": "_ePkfi_B_mcu9HevlD0LmQ", "alias": "qq-sushi-and-kitchen-spokane-3", "name": "QQ Sushi & Kitchen", "image_url": "https://s3-media4.fl.yelpcdn.com/bphoto/ekMM1w_5I2nfyXGAHs-hig/o.jpg", "is_closed": false, "url": "https://www.yelp.com/biz/qq-sushi-and-kitchen-spokane-3?adjust_creative=TpLShpR2csZ2AtLGvsRWXw&utm_campaign=yelp_api_v3&utm_medium=api_v3_business_search&utm_source=TpLShpR2csZ2AtLGvsRWXw", "review_count": 258, "categories": [{"alias": "sushi", "title": "Sushi Bars"}, {"alias": "chinese", "title": "Chinese"}, {"alias": "japanese", "title": "Japanese"}], "rating": 4.5, "coordinates": {"latitude": 47.7157074190342, "longitude": -117.439140225116}, "transactions": [], "price": "$$", "location": {"address1": "1902 W Francis Ave", "address2": "Ste 108", "address3": "", "city": "Spokane", "zip_code": "99205", "country": "US", "state": "WA", "display_address": ["1902 W Francis Ave", "Ste 108", "Spokane, WA 99205"]}, "phone": "+15092792721", "display_phone": "(509) 279-2721", "distance": 4917.307979801504}, {"id": "0kt3Z5PFGETNcoWpIyy_QA", "alias": "sushi-com-spokane", "name": "Sushi.Com", "image_url": "https://s3-media1.fl.yelpcdn.com/bphoto/zed34kxurR1a-1cofhyVkA/o.jpg", "is_closed": false, "url": "https://www.yelp.com/biz/sushi-com-spokane?adjust_creative=TpLShpR2csZ2AtLGvsRWXw&utm_campaign=yelp_api_v3&utm_medium=api_v3_business_search&utm_source=TpLShpR2csZ2AtLGvsRWXw", "review_count": 303, "categories": [{"alias": "sushi", "title": "Sushi Bars"}, {"alias": "japanese", "title": "Japanese"}], "rating": 4.0, "coordinates": {"latitude": 47.6593, "longitude": -117.41929}, "transactions": [], "price": "$$", "location": {"address1": "430 W Main Ave", "address2": "", "address3": "", "city": "Spokane", "zip_code": "99201", "country": "US", "state": "WA", "display_address": ["430 W Main Ave", "Spokane, WA 99201"]}, "phone": "+15098380630", "display_phone": "(509) 838-0630", "distance": 2202.4764658848703}, {"id": "DE__ryKPthsqvQqAQ3Saqg", "alias": "yards-bruncheon-spokane", "name": "Yards Bruncheon", "image_url": "https://s3-media3.fl.yelpcdn.com/bphoto/LSTB-Al4-fIvvNN0vea8IQ/o.jpg", "is_closed": false, "url": "https://www.yelp.com/biz/yards-bruncheon-spokane?adjust_creative=TpLShpR2csZ2AtLGvsRWXw&utm_campaign=yelp_api_v3&utm_medium=api_v3_business_search&utm_source=TpLShpR2csZ2AtLGvsRWXw", "review_count": 343, "categories": [{"alias": "newamerican", "title": "American (New)"}, {"alias": "breakfast_brunch", "title": "Breakfast & Brunch"}, {"alias": "coffee", "title": "Coffee & Tea"}], "rating": 4.0, "coordinates": {"latitude": 47.6619979478766, "longitude": -117.431073818771}, "transactions": [], "price": "$$", "location": {"address1": "1248 W Summit Pkwy", "address2": "", "address3": "", "city": "Spokane", "zip_code": "99201", "country": "US", "state": "WA", "display_address": ["1248 W Summit Pkwy", "Spokane, WA 99201"]}, "phone": "+15092905952", "display_phone": "(509) 290-5952", "distance": 2485.7397712552556}], [{"id": "ZSmtQJvp4NPJWFBvbhaPvQ", "alias": "the-melon-seed-deli-and-frozen-yogurt-tacoma", "name": "The Melon Seed Deli & Frozen Yogurt", "image_url": "https://s3-media1.fl.yelpcdn.com/bphoto/deJWKuH_pRbyzjoA3r1Q8Q/o.jpg", "is_closed": false, "url": "https://www.yelp.com/biz/the-melon-seed-deli-and-frozen-yogurt-tacoma?adjust_creative=TpLShpR2csZ2AtLGvsRWXw&utm_campaign=yelp_api_v3&utm_medium=api_v3_business_search&utm_source=TpLShpR2csZ2AtLGvsRWXw", "review_count": 402, "categories": [{"alias": "icecream", "title": "Ice Cream & Frozen Yogurt"}, {"alias": "salad", "title": "Salad"}, {"alias": "desserts", "title": "Desserts"}], "rating": 5.0, "coordinates": {"latitude": 47.231709, "longitude": -122.486536}, "transactions": [], "price": "$", "location": {"address1": "3807 Center St", "address2": "Ste D", "address3": "", "city": "Tacoma", "zip_code": "98409", "country": "US", "state": "WA", "display_address": ["3807 Center St", "Ste D", "Tacoma, WA 98409"]}, "phone": "+12532790029", "display_phone": "(253) 279-0029", "distance": 2996.997363935294}, {"id": "mOdDHukY2UntqwXWnozU6g", "alias": "msm-deli-tacoma", "name": "MSM Deli", "image_url": "https://s3-media1.fl.yelpcdn.com/bphoto/avbEhaPHQ5qg0dOWDOoXzQ/o.jpg", "is_closed": false, "url": "https://www.yelp.com/biz/msm-deli-tacoma?adjust_creative=TpLShpR2csZ2AtLGvsRWXw&utm_campaign=yelp_api_v3&utm_medium=api_v3_business_search&utm_source=TpLShpR2csZ2AtLGvsRWXw", "review_count": 596, "categories": [{"alias": "delis", "title": "Delis"}, {"alias": "sandwiches", "title": "Sandwiches"}], "rating": 4.5, "coordinates": {"latitude": 47.25514, "longitude": -122.46674}, "transactions": [], "price": "$", "location": {"address1": "2220 6th Ave", "address2": "", "address3": "", "city": "Tacoma", "zip_code": "98403", "country": "US", "state": "WA", "display_address": ["2220 6th Ave", "Tacoma, WA 98403"]}, "phone": "+12532724814", "display_phone": "(253) 272-4814", "distance": 1016.4520066325482}, {"id": "rmQWX9e-FMtW3S48KkUF7Q", "alias": "dirty-oscars-annex-tacoma", "name": "Dirty Oscar's Annex", "image_url": "https://s3-media1.fl.yelpcdn.com/bphoto/NdWuiWTrFcWi07BflnslKQ/o.jpg", "is_closed": false, "url": "https://www.yelp.com/biz/dirty-oscars-annex-tacoma?adjust_creative=TpLShpR2csZ2AtLGvsRWXw&utm_campaign=yelp_api_v3&utm_medium=api_v3_business_search&utm_source=TpLShpR2csZ2AtLGvsRWXw", "review_count": 963, "categories": [{"alias": "breakfast_brunch", "title": "Breakfast & Brunch"}, {"alias": "newamerican", "title": "American (New)"}, {"alias": "gastropubs", "title": "Gastropubs"}], "rating": 4.0, "coordinates": {"latitude": 47.2555809241447, "longitude": -122.467788463652}, "transactions": [], "price": "$$", "location": {"address1": "2309 6th Ave", "address2": "", "address3": "", "city": "Tacoma", "zip_code": "98403", "country": "US", "state": "WA", "display_address": ["2309 6th Ave", "Tacoma, WA 98403"]}, "phone": "+12535720588", "display_phone": "(253) 572-0588", "distance": 1115.324435822325}, {"id": "EX7BIFNNNi10IkzqqdftdA", "alias": "top-of-tacoma-bar-tacoma", "name": "Top of Tacoma Bar", "image_url": "https://s3-media3.fl.yelpcdn.com/bphoto/lQuJ6EIsI0CSYFtJZEQoKQ/o.jpg", "is_closed": false, "url": "https://www.yelp.com/biz/top-of-tacoma-bar-tacoma?adjust_creative=TpLShpR2csZ2AtLGvsRWXw&utm_campaign=yelp_api_v3&utm_medium=api_v3_business_search&utm_source=TpLShpR2csZ2AtLGvsRWXw", "review_count": 530, "categories": [{"alias": "bars", "title": "Bars"}, {"alias": "newamerican", "title": "American (New)"}], "rating": 4.5, "coordinates": {"latitude": 47.2292648, "longitude": -122.4205501}, "transactions": [], "price": "$$", "location": {"address1": "3529 McKinley Ave", "address2": "", "address3": "", "city": "Tacoma", "zip_code": "98438", "country": "US", "state": "WA", "display_address": ["3529 McKinley Ave", "Tacoma, WA 98438"]}, "phone": "+12532721502", "display_phone": "(253) 272-1502", "distance": 3511.372410624962}, {"id": "8zXqGH5xnASU_5UBrwe_XA", "alias": "red-hot-tacoma", "name": "Red Hot", "image_url": "https://s3-media1.fl.yelpcdn.com/bphoto/f9mNFPCcrEBo-zN5VJkbZQ/o.jpg", "is_closed": false, "url": "https://www.yelp.com/biz/red-hot-tacoma?adjust_creative=TpLShpR2csZ2AtLGvsRWXw&utm_campaign=yelp_api_v3&utm_medium=api_v3_business_search&utm_source=TpLShpR2csZ2AtLGvsRWXw", "review_count": 628, "categories": [{"alias": "hotdog", "title": "Hot Dogs"}, {"alias": "beerbar", "title": "Beer Bar"}, {"alias": "vegan", "title": "Vegan"}], "rating": 4.5, "coordinates": {"latitude": 47.25501, "longitude": -122.47452}, "transactions": [], "price": "$", "location": {"address1": "2914 6th Ave", "address2": "", "address3": "", "city": "Tacoma", "zip_code": "98438", "country": "US", "state": "WA", "display_address": ["2914 6th Ave", "Tacoma, WA 98438"]}, "phone": "+12537790229", "display_phone": "(253) 779-0229", "distance": 1516.6505343616773}, {"id": "fLiRs6kMnqD64uINuund0w", "alias": "la-waffletz-and-macaron-station-tacoma-5", "name": "La Waffletz & Macaron Station", "image_url": "https://s3-media2.fl.yelpcdn.com/bphoto/9FL_NB-Uwb-9Z7xykGSxtQ/o.jpg", "is_closed": false, "url": "https://www.yelp.com/biz/la-waffletz-and-macaron-station-tacoma-5?adjust_creative=TpLShpR2csZ2AtLGvsRWXw&utm_campaign=yelp_api_v3&utm_medium=api_v3_business_search&utm_source=TpLShpR2csZ2AtLGvsRWXw", "review_count": 229, "categories": [{"alias": "waffles", "title": "Waffles"}, {"alias": "macarons", "title": "Macarons"}], "rating": 5.0, "coordinates": {"latitude": 47.23964, "longitude": -122.4273}, "transactions": [], "price": "$", "location": {"address1": "430 E 25th St", "address2": "Ste 32", "address3": "", "city": "Tacoma", "zip_code": "98421", "country": "US", "state": "WA", "display_address": ["430 E 25th St", "Ste 32", "Tacoma, WA 98421"]}, "phone": "+12064899770", "display_phone": "(206) 489-9770", "distance": 2340.265554913998}, {"id": "ApVgEmaWz6kGUiOTSBdUmQ", "alias": "dukes-seafood-and-chowder-tacoma", "name": "Duke's Seafood & Chowder", "image_url": "https://s3-media1.fl.yelpcdn.com/bphoto/BdWuNcAu36zQvJ_xl_C8Og/o.jpg", "is_closed": false, "url": "https://www.yelp.com/biz/dukes-seafood-and-chowder-tacoma?adjust_creative=TpLShpR2csZ2AtLGvsRWXw&utm_campaign=yelp_api_v3&utm_medium=api_v3_business_search&utm_source=TpLShpR2csZ2AtLGvsRWXw", "review_count": 712, "categories": [{"alias": "seafood", "title": "Seafood"}, {"alias": "bars", "title": "Bars"}, {"alias": "burgers", "title": "Burgers"}], "rating": 4.0, "coordinates": {"latitude": 47.282217, "longitude": -122.47999}, "transactions": [], "price": "$$", "location": {"address1": "3327 Ruston Way", "address2": "", "address3": "", "city": "Tacoma", "zip_code": "98402", "country": "US", "state": "WA", "display_address": ["3327 Ruston Way", "Tacoma, WA 98402"]}, "phone": "+12537525444", "display_phone": "(253) 752-5444", "distance": 4111.817423856846}, {"id": "a87hKtZGbwWLNcPX0l4O7w", "alias": "burger-seoul-tacoma-2", "name": "Burger Seoul", "image_url": "https://s3-media2.fl.yelpcdn.com/bphoto/kNzMl2ClniZqJEwbGAB0xg/o.jpg", "is_closed": false, "url": "https://www.yelp.com/biz/burger-seoul-tacoma-2?adjust_creative=TpLShpR2csZ2AtLGvsRWXw&utm_campaign=yelp_api_v3&utm_medium=api_v3_business_search&utm_source=TpLShpR2csZ2AtLGvsRWXw", "review_count": 343, "categories": [{"alias": "burgers", "title": "Burgers"}, {"alias": "foodtrucks", "title": "Food Trucks"}], "rating": 4.5, "coordinates": {"latitude": 47.2429325793314, "longitude": -122.469043029326}, "transactions": [], "price": "$", "location": {"address1": "1750 S Prospect", "address2": "", "address3": "", "city": "Tacoma", "zip_code": "98405", "country": "US", "state": "WA", "display_address": ["1750 S Prospect", "Tacoma, WA 98405"]}, "phone": "+12530000000", "display_phone": "(253) 000-0000", "distance": 1185.6376398719058}, {"id": "e7rp2BaTJl2pIRBLXtQUOg", "alias": "southern-kitchen-tacoma", "name": "Southern Kitchen", "image_url": "https://s3-media2.fl.yelpcdn.com/bphoto/tMgC2eSlUHw1lTxz3pKpTQ/o.jpg", "is_closed": false, "url": "https://www.yelp.com/biz/southern-kitchen-tacoma?adjust_creative=TpLShpR2csZ2AtLGvsRWXw&utm_campaign=yelp_api_v3&utm_medium=api_v3_business_search&utm_source=TpLShpR2csZ2AtLGvsRWXw", "review_count": 875, "categories": [{"alias": "southern", "title": "Southern"}, {"alias": "soulfood", "title": "Soul Food"}], "rating": 4.0, "coordinates": {"latitude": 47.25584, "longitude": -122.46237}, "transactions": ["delivery", "pickup"], "price": "$$", "location": {"address1": "1716 6th Ave", "address2": "", "address3": "", "city": "Tacoma", "zip_code": "98405", "country": "US", "state": "WA", "display_address": ["1716 6th Ave", "Tacoma, WA 98405"]}, "phone": "+12536274282", "display_phone": "(253) 627-4282", "distance": 876.0102772318716}, {"id": "v4nJnz7EJBgixhCMRVZCog", "alias": "the-eleven-eleven-bar-tacoma", "name": "The Eleven Eleven Bar", "image_url": "https://s3-media1.fl.yelpcdn.com/bphoto/pKN6u6Es3v-rWAigiNfrMw/o.jpg", "is_closed": false, "url": "https://www.yelp.com/biz/the-eleven-eleven-bar-tacoma?adjust_creative=TpLShpR2csZ2AtLGvsRWXw&utm_campaign=yelp_api_v3&utm_medium=api_v3_business_search&utm_source=TpLShpR2csZ2AtLGvsRWXw", "review_count": 285, "categories": [{"alias": "bars", "title": "Bars"}, {"alias": "sandwiches", "title": "Sandwiches"}], "rating": 4.5, "coordinates": {"latitude": 47.2519449747931, "longitude": -122.452301637895}, "transactions": ["delivery", "pickup"], "price": "$$", "location": {"address1": "1111 S 11th St", "address2": "", "address3": "", "city": "Tacoma", "zip_code": "98405", "country": "US", "state": "WA", "display_address": ["1111 S 11th St", "Tacoma, WA 98405"]}, "phone": "+12532841111", "display_phone": "(253) 284-1111", "distance": 430.668296608212}, {"id": "YH2nXxVduIW0VAoDKlTzPA", "alias": "point-defiance-park-tacoma", "name": "Point Defiance Park", "image_url": "https://s3-media2.fl.yelpcdn.com/bphoto/b7Zj3zMYE8b08kaJY7-ZjA/o.jpg", "is_closed": false, "url": "https://www.yelp.com/biz/point-defiance-park-tacoma?adjust_creative=TpLShpR2csZ2AtLGvsRWXw&utm_campaign=yelp_api_v3&utm_medium=api_v3_business_search&utm_source=TpLShpR2csZ2AtLGvsRWXw", "review_count": 159, "categories": [{"alias": "parks", "title": "Parks"}], "rating": 5.0, "coordinates": {"latitude": 47.3019884, "longitude": -122.5155991}, "transactions": [], "location": {"address1": "5400 N Pearl St", "address2": "", "address3": "", "city": "Tacoma", "zip_code": "98407", "country": "US", "state": "WA", "display_address": ["5400 N Pearl St", "Tacoma, WA 98407"]}, "phone": "+12533051000", "display_phone": "(253) 305-1000", "distance": 7896.598753051158}, {"id": "O1v7Pa-sMVsnn1L0RPT-nw", "alias": "asado-tacoma-2", "name": "Asado", "image_url": "https://s3-media3.fl.yelpcdn.com/bphoto/Om62lqOt1BCgRfFwQ90JQg/o.jpg", "is_closed": false, "url": "https://www.yelp.com/biz/asado-tacoma-2?adjust_creative=TpLShpR2csZ2AtLGvsRWXw&utm_campaign=yelp_api_v3&utm_medium=api_v3_business_search&utm_source=TpLShpR2csZ2AtLGvsRWXw", "review_count": 548, "categories": [{"alias": "argentine", "title": "Argentine"}, {"alias": "steak", "title": "Steakhouses"}], "rating": 4.0, "coordinates": {"latitude": 47.2552, "longitude": -122.47319}, "transactions": [], "price": "$$$", "location": {"address1": "2810 6th Ave", "address2": "", "address3": "", "city": "Tacoma", "zip_code": "98406", "country": "US", "state": "WA", "display_address": ["2810 6th Ave", "Tacoma, WA 98406"]}, "phone": "+12532727770", "display_phone": "(253) 272-7770", "distance": 1434.0202156343103}, {"id": "E8X8_xHuq3HbIAIySofhDg", "alias": "joy-teriyaki-tacoma", "name": "Joy Teriyaki", "image_url": "https://s3-media3.fl.yelpcdn.com/bphoto/I8Wcau1-iTFF7C8tMzidRw/o.jpg", "is_closed": false, "url": "https://www.yelp.com/biz/joy-teriyaki-tacoma?adjust_creative=TpLShpR2csZ2AtLGvsRWXw&utm_campaign=yelp_api_v3&utm_medium=api_v3_business_search&utm_source=TpLShpR2csZ2AtLGvsRWXw", "review_count": 276, "categories": [{"alias": "japanese", "title": "Japanese"}], "rating": 4.5, "coordinates": {"latitude": 47.2549749579181, "longitude": -122.489356486928}, "transactions": ["delivery", "pickup"], "price": "$", "location": {"address1": "3908 6th Ave", "address2": null, "address3": null, "city": "Tacoma", "zip_code": "98406", "country": "US", "state": "WA", "display_address": ["3908 6th Ave", "Tacoma, WA 98406"]}, "phone": "+12537594400", "display_phone": "(253) 759-4400", "distance": 2571.2911875194272}, {"id": "Uikm5doyxbXty1WoIyGwng", "alias": "mandolin-sushi-and-steakhouse-tacoma", "name": "Mandolin Sushi and Steakhouse", "image_url": "https://s3-media2.fl.yelpcdn.com/bphoto/d3P2waFIN2GUoJXtcGWyig/o.jpg", "is_closed": false, "url": "https://www.yelp.com/biz/mandolin-sushi-and-steakhouse-tacoma?adjust_creative=TpLShpR2csZ2AtLGvsRWXw&utm_campaign=yelp_api_v3&utm_medium=api_v3_business_search&utm_source=TpLShpR2csZ2AtLGvsRWXw", "review_count": 477, "categories": [{"alias": "sushi", "title": "Sushi Bars"}, {"alias": "japanese", "title": "Japanese"}, {"alias": "steak", "title": "Steakhouses"}], "rating": 4.0, "coordinates": {"latitude": 47.2503200340094, "longitude": -122.490023933351}, "transactions": [], "price": "$$", "location": {"address1": "3923 S 12th St", "address2": "", "address3": "", "city": "Tacoma", "zip_code": "98405", "country": "US", "state": "WA", "display_address": ["3923 S 12th St", "Tacoma, WA 98405"]}, "phone": "+12533014969", "display_phone": "(253) 301-4969", "distance": 2543.874903776783}, {"id": "cgpfIEZBChUrG7IauI52qw", "alias": "pacific-southern-tacoma", "name": "Pacific Southern", "image_url": "https://s3-media2.fl.yelpcdn.com/bphoto/2JoKZXoaO5XQip8FQEAuew/o.jpg", "is_closed": false, "url": "https://www.yelp.com/biz/pacific-southern-tacoma?adjust_creative=TpLShpR2csZ2AtLGvsRWXw&utm_campaign=yelp_api_v3&utm_medium=api_v3_business_search&utm_source=TpLShpR2csZ2AtLGvsRWXw", "review_count": 640, "categories": [{"alias": "southern", "title": "Southern"}, {"alias": "bars", "title": "Bars"}, {"alias": "breakfast_brunch", "title": "Breakfast & Brunch"}], "rating": 4.0, "coordinates": {"latitude": 47.22146, "longitude": -122.47405}, "transactions": [], "price": "$$", "location": {"address1": "3832 S Pine St", "address2": "", "address3": "", "city": "Tacoma", "zip_code": "98409", "country": "US", "state": "WA", "display_address": ["3832 S Pine St", "Tacoma, WA 98409"]}, "phone": "+12534749898", "display_phone": "(253) 474-9898", "distance": 3363.8471035019315}, {"id": "YNjfOowGIzAgDZTlXuULfA", "alias": "pacific-grill-tacoma", "name": "Pacific Grill", "image_url": "https://s3-media3.fl.yelpcdn.com/bphoto/EX7ScSzDQzs32sllHKpYFg/o.jpg", "is_closed": false, "url": "https://www.yelp.com/biz/pacific-grill-tacoma?adjust_creative=TpLShpR2csZ2AtLGvsRWXw&utm_campaign=yelp_api_v3&utm_medium=api_v3_business_search&utm_source=TpLShpR2csZ2AtLGvsRWXw", "review_count": 815, "categories": [{"alias": "newamerican", "title": "American (New)"}, {"alias": "seafood", "title": "Seafood"}, {"alias": "breakfast_brunch", "title": "Breakfast & Brunch"}], "rating": 4.0, "coordinates": {"latitude": 47.2490792298187, "longitude": -122.437916994095}, "transactions": ["restaurant_reservation"], "price": "$$", "location": {"address1": "1502 Pacific Ave", "address2": null, "address3": "", "city": "Tacoma", "zip_code": "98402", "country": "US", "state": "WA", "display_address": ["1502 Pacific Ave", "Tacoma, WA 98402"]}, "phone": "+12536273535", "display_phone": "(253) 627-3535", "distance": 1392.1647662611826}, {"id": "RqxusFi2wsbF7O-77giV-Q", "alias": "the-matador-tacoma", "name": "The Matador", "image_url": "https://s3-media3.fl.yelpcdn.com/bphoto/-kWqCfOgqV6_W4ugXZ3Dqg/o.jpg", "is_closed": false, "url": "https://www.yelp.com/biz/the-matador-tacoma?adjust_creative=TpLShpR2csZ2AtLGvsRWXw&utm_campaign=yelp_api_v3&utm_medium=api_v3_business_search&utm_source=TpLShpR2csZ2AtLGvsRWXw", "review_count": 670, "categories": [{"alias": "tex-mex", "title": "Tex-Mex"}, {"alias": "bars", "title": "Bars"}, {"alias": "mexican", "title": "Mexican"}], "rating": 4.0, "coordinates": {"latitude": 47.2563675, "longitude": -122.4391011}, "transactions": [], "price": "$$", "location": {"address1": "721 Pacific Ave", "address2": null, "address3": "", "city": "Tacoma", "zip_code": "98402", "country": "US", "state": "WA", "display_address": ["721 Pacific Ave", "Tacoma, WA 98402"]}, "phone": "+12536277100", "display_phone": "(253) 627-7100", "distance": 1551.508846824901}, {"id": "mnCOu-4S1jn1OJ7E6Xr6Kg", "alias": "over-the-moon-cafe-tacoma", "name": "Over the Moon Cafe", "image_url": "https://s3-media2.fl.yelpcdn.com/bphoto/TXj5p_frfuacPRX709IZ8Q/o.jpg", "is_closed": false, "url": "https://www.yelp.com/biz/over-the-moon-cafe-tacoma?adjust_creative=TpLShpR2csZ2AtLGvsRWXw&utm_campaign=yelp_api_v3&utm_medium=api_v3_business_search&utm_source=TpLShpR2csZ2AtLGvsRWXw", "review_count": 326, "categories": [{"alias": "newamerican", "title": "American (New)"}, {"alias": "breakfast_brunch", "title": "Breakfast & Brunch"}, {"alias": "wine_bars", "title": "Wine Bars"}], "rating": 4.5, "coordinates": {"latitude": 47.2573102682037, "longitude": -122.441511625539}, "transactions": [], "price": "$$", "location": {"address1": "709 Opera Aly", "address2": "", "address3": "", "city": "Tacoma", "zip_code": "98402", "country": "US", "state": "WA", "display_address": ["709 Opera Aly", "Tacoma, WA 98402"]}, "phone": "+12532843722", "display_phone": "(253) 284-3722", "distance": 1436.9000713331397}, {"id": "jjbETq9Ti6zMdIMZxhIzEA", "alias": "marcias-silver-spoon-cafe-tacoma", "name": "Marcia's Silver Spoon Cafe", "image_url": "https://s3-media3.fl.yelpcdn.com/bphoto/E0t0Ax_tbQsOisV-1HKEoA/o.jpg", "is_closed": false, "url": "https://www.yelp.com/biz/marcias-silver-spoon-cafe-tacoma?adjust_creative=TpLShpR2csZ2AtLGvsRWXw&utm_campaign=yelp_api_v3&utm_medium=api_v3_business_search&utm_source=TpLShpR2csZ2AtLGvsRWXw", "review_count": 553, "categories": [{"alias": "breakfast_brunch", "title": "Breakfast & Brunch"}, {"alias": "diners", "title": "Diners"}, {"alias": "tradamerican", "title": "American (Traditional)"}], "rating": 4.0, "coordinates": {"latitude": 47.23072, "longitude": -122.4712}, "transactions": [], "price": "$$", "location": {"address1": "2601 S Tacoma Way", "address2": "", "address3": "", "city": "Tacoma", "zip_code": "98409", "country": "US", "state": "WA", "display_address": ["2601 S Tacoma Way", "Tacoma, WA 98409"]}, "phone": "+12534720157", "display_phone": "(253) 472-0157", "distance": 2350.6567392813245}, {"id": "RASE-FAMGwgKF1VqyvvJ5Q", "alias": "pho-king-tacoma", "name": "Pho King", "image_url": "https://s3-media1.fl.yelpcdn.com/bphoto/2kKHybqnhWdXiowpDk1bsg/o.jpg", "is_closed": false, "url": "https://www.yelp.com/biz/pho-king-tacoma?adjust_creative=TpLShpR2csZ2AtLGvsRWXw&utm_campaign=yelp_api_v3&utm_medium=api_v3_business_search&utm_source=TpLShpR2csZ2AtLGvsRWXw", "review_count": 308, "categories": [{"alias": "vietnamese", "title": "Vietnamese"}, {"alias": "sandwiches", "title": "Sandwiches"}], "rating": 4.5, "coordinates": {"latitude": 47.25223, "longitude": -122.45218}, "transactions": [], "price": "$", "location": {"address1": "1020 Martin Luther King Jr Way", "address2": "", "address3": "", "city": "Tacoma", "zip_code": "98405", "country": "US", "state": "WA", "display_address": ["1020 Martin Luther King Jr Way", "Tacoma, WA 98405"]}, "phone": "+12532726287", "display_phone": "(253) 272-6287", "distance": 466.5780398720273}]]}